"shop_id","name","alias","province","city","city_pinyin","city_id","area","big_cate","big_cate_id","small_cate","small_cate_id","address","business_area","phone","hours","avg_price","stars","photos","description","tags","map_type","original_latitude","original_longitude","google_longitude","google_latitude","navigation","traffic","atmosphere","characteristics","payment","product_rating","environment_rating","service_rating","all_remarks","very_good_remarks","good_remarks","common_remarks","bad_remarks","very_bad_remarks","recommended_dishes","nearby_shops","is_chains","group_info","card_info"
"10001152","林师傅","","广东","广州","guangzhou","4","荔湾区","美食","10","简餐快餐","g210","周门南路12号","中山七八路","020-81721896","","12","3.0","http://i3.dpfile.com/pc/96671369da2a8a4c3b7a7289c50a5221/29270543_m.jpg","","牛杂,中山七八路,是老字号,可送外卖,供应早餐","7","23.13054","113.23957","113.23957","23.13054","广州餐厅>>荔湾区>>中山七八路>>简餐快餐>>林师傅","","","","","6.8","6.5","6.4","23","2","6","9","1","1","牛三星","","0","",""
"10003820","糖朵甜品工坊","","浙江","杭州","hangzhou","3","西湖区","美食","10","面包甜点","g117","竞舟路213号紫桂花园底商20-11号(近求是小学)","古墩路沿线","13758255953,13857166608","10:00---21:00","27","2.0","http://i1.dpfile.com/pc/6bfa1bf9a5e683df6d0486866c5a3a39/34688328_m.jpg","","甜品饮品,古墩路沿线,无线上网,有下午茶,可送外卖,有露天位","7","30.28417","120.1036","120.1036","30.28417","杭州餐厅>>西湖区>>古墩路沿线>>面包甜点>>甜品饮品>>糖朵甜品工坊","","","","","5.4","5.8","5.9","10","0","1","2","1","0","杨枝甘露,双皮奶,黑糯米甜甜,多芳小丸子,多芒小丸子,白雪黑珍珠,雪山黑珍珠,芒果班戟,小丸子","","0","￥16 - 价值20元！ 糖朵甜品工坊代金券",""
"10003856","江南食代自助餐厅","","福建","福州","fuzhou","14","台江区","美食","10","自助餐","g111","工业路193号宝龙城市广场4楼(近万象城)","宝龙万象","0591-83899889","11:30-21:00","58","3.0","http://i2.dpfile.com/pc/b0eb31105d69be7781271fd039f612fd/37717822_m.jpg","","自助餐,烧烤,宝龙万象","7","26.06247","119.2917","119.2917","26.06247","福州餐厅>>台江区>>宝龙万象>>自助餐>>江南食代自助餐厅","","","","","6.5","6.5","6.4","44","2","2","0","0","0","芋头,鱼豆腐","","0","￥58.8 - 价值69元！ 江南食代自助餐厅单人自助晚餐1位;￥48.8 - 价值59元！ 江南食代自助餐厅单人自助午餐",""
"10003906","漓江又一轩(南山旗舰店)","","广东","深圳","shenzhen","7","南山区","美食","10","其他","g118","南山大道2009号(南航公司正对面)","南油","0755-86034303","11:00-22:00","71","4.0","http://i2.dpfile.com/pc/d710667da078a8e33c4853dd94f5af4e/29099413_m.jpg","看店名就知道做的是“广西菜”。菜“没有以前实惠”了，但干锅系列仍然“受欢迎”，特别是鸡煲，“色香味”俱全，辣辣得“很过瘾”，分量也“足""，人不多的话“点一份完全可以吃饱”了。环境装点得很有“农家”风味，青砖灰瓦结合木梁竹壁，倒也“乡趣盎然”。","其他中餐,南油,无线上网,休闲小憩,是老字号,可送外卖","7","22.52497","113.9234","113.9234","22.52497","深圳餐厅>>南山区>>南油>>其他>>其他中餐>>漓江又一轩(南山旗舰店)","","","","","7.9","8.3","7.9","74","19","15","16","4","6","鸭嘴鱼,凉拌木耳,田螺鸡,猪展汤,爽口萝卜皮,盐焗虾","","1","",""
"10003936","MAAN COFFEE(1912店)","漫咖啡","江苏","南京","nanjing","5","玄武区","美食","10","其他","g118","1912街区9号楼(近长江后街)","珠江路沿线","025-85607288","09:30--02:00","55","4.5","http://i2.dpfile.com/pc/9810c303e7790665d8969b65266ee0c4/33719551_m.jpg","","咖啡厅,珠江路沿线,无线上网,可以刷卡,休闲小憩,情侣约会,有露天位,朋友聚餐,有下午茶,随便吃吃,家庭聚会,有无烟区","7","32.04619","118.79608","118.79608","32.04619","南京餐厅>>玄武区>>珠江路沿线>>其他>>咖啡厅>>MAAN COFFEE(1912店)","","","下午茶","","8.6","9.1","8.4","251","76","102","25","7","10","原味松饼,韩式烤牛肉汉堡,芝士松饼,白巧克力拿铁,水果冰淇淋松饼,火腿三明治套餐,榛果焦糖拿铁,拿铁,蓝柠汽水,巧克力松饼,抹茶红豆冰沙,绿茶松饼,紫薯拿铁,蔓越莓摩卡,BLT火腿三明治,棉花糖巧克力,焦糖肉桂面包,帕尼尼,白提拉米苏拿铁,棉花糖热巧克力,巧克力薄荷拿铁,草莓松饼,冰芒果橙汁,焦糖肉桂,草莓面包","","1","",""
"10003996","冰月啡","","广东","广州","guangzhou","4","番禺区","美食","10","面包甜点","g117","大学城北一路GOGO新天地3楼","大学城","","","10","0.0","http://i3.dpfile.com/pc/63d94f988dbff031f3646277c0f99102/31037234_m.jpg","","雪糕饮品,大学城","7","23.0608","113.39215","113.39215","23.0608","广州餐厅>>番禺区>>大学城>>面包甜点>>雪糕饮品>>冰月啡","","","","","","","","8","5","3","0","0","0","芋圆,绿茶绵绵冰,道地芋圆","","0","",""
"10004036","川崎火锅","","江苏","南京","nanjing","5","秦淮区","美食","10","火锅","g110","延龄巷26号(近刘氏鸭血粉丝)","新街口地区","15905152888","晚餐是下午五点开始","44","3.5","http://i1.dpfile.com/pc/784a1afad3dfb48cd666c3169a7fbe3d/39978057_m.jpg","","火锅,新街口地区","7","32.037","118.79162","118.79162","32.037","南京餐厅>>秦淮区>>新街口地区>>火锅>>川崎火锅","","","","","7.3","7.3","7.7","25","9","5","3","2","2","十三香螃蟹,铁板水晶粉丝,麻婆豆腐","","0","￥68 - 价值138元！ 川崎火锅经典双人火锅餐",""
"10004038","阿姨奶茶专卖(五角场国济路店)","","上海","上海","shanghai","1","杨浦区","美食","10","面包甜点","g117","国济路28-1号(近政通路)","五角场/大学区","18301885507,18301885517","11.00--23.00","7","3.5","http://i3.dpfile.com/pc/d22ac1b9d6bde9100f6352c4b0e7edc7/33657749_m.jpg","","饮品,五角场/大学区,可送外卖,随便吃吃","7","31.30216","121.51602","121.51602","31.30216","上海餐厅>>杨浦区>>五角场/大学区>>面包甜点>>饮品>>阿姨奶茶专卖(五角场国济路店)","","","外送","","7.0","7.1","7.2","155","14","30","53","28","18","血糯米奶茶,布丁奶茶,芋圆奶茶,血糯米芋圆奶茶,门面","","1","",""
"10004100","盛祥记面馆","","江苏","南京","nanjing","5","玄武区","美食","10","小吃快餐","g112","红庙路(红庙水果店对面)","珠江路沿线","13813991088","8：00—21:00","15","0.0","http://i1.dpfile.com/pc/cc8055721edd715e35ea880f0e842e5b/28070631_m.jpg","","面馆,珠江路沿线","7","32.04767","118.78985","118.78985","32.04767","南京餐厅>>玄武区>>珠江路沿线>>小吃快餐>>面馆>>盛祥记面馆","","","","","","","","8","0","0","1","0","0","三鲜面","","0","",""
"10004110","LOW CARBS冰淇淋","","北京","北京","beijing","2","西城区","美食","10","面包甜点","g117","西单北大街131号西单大悦城9楼","西单","13488898999","10：00-22：00","20","3.0","http://i1.dpfile.com/pc/110487c686dac67b4cee319ad52345f9/29654685_m.jpg","","面包甜点,西单,有下午茶","7","39.91069","116.3737","116.3737","39.91069","北京餐厅>>西城区>>西单>>面包甜点>>LOW CARBS冰淇淋","","","","","5.9","6.4","7.0","22","1","5","3","4","6","暴风雪,迷偶串串,双色冰淇淋,草莓奶油堡","","0","",""
"10004202","煲好煨","","河北","廊坊","langfang","33","安次区","美食","10","快餐简餐","g210","新华路50号万达广场","明珠美食城","0316-2767671","","45","3.0","http://i2.dpfile.com/pc/7562b98f3d6707609799ba54dcef42fe/28881460_m.jpg","","快餐简餐,明珠美食城","7","39.52252","116.70777","116.70777","39.52252","廊坊餐厅>>安次区>>明珠美食城>>快餐简餐>>煲好煨","","","","","6.3","6.6","6.2","13","3","0","0","0","1","生煎包","","0","￥39 - 价值50元！ 煲好煨代金券",""
"10004231","中心假日——壹号咖啡","","山东","青岛","qingdao","21","市南区","美食","10","其他","g118","徐州路1号假日酒店1楼","浮山所","0532-68090366","","39","3.0","http://i1.dpfile.com/pc/1512c8916dc8933c2a550c98cc141931/28030653_m.jpg","","咖啡厅,浮山所,可以刷卡,有下午茶,休闲小憩,随便吃吃","7","36.06754","120.38838","120.38838","36.06754","青岛餐厅>>市南区>>浮山所>>其他>>咖啡厅>>中心假日——壹号咖啡","","","","","6.3","6.3","7.1","11","0","3","0","0","0","歌剧蛋糕,德式芝士,核桃派,榴莲慕斯,水果丹麦蛋糕,胡萝卜蛋糕,抹茶杏酱慕斯,提拉米苏杯","","0","￥29.8 - 价值51元！ 中心假日酒店单人甜点套餐",""
"10004260","元始纸上烤肉(东城汇店)","","江苏","南京","nanjing","5","栖霞区","美食","10","小吃快餐","g112","栖霞区文苑路仙林东城汇","","025-68128663,15261855387","11:00-22:00","42","2.0","http://i2.dpfile.com/pc/37700d2fafb452e02cede13dc9b68b9c/44571550_m.jpg","","烧烤,无线上网,朋友聚餐,免费停车,情侣约会,有生日优惠,家庭聚会,休闲小憩,可以刷卡,可自带酒水","7","32.09708","118.90738","118.90738","32.09708","南京餐厅>>栖霞区>>小吃快餐>>烧烤>>元始纸上烤肉(东城汇店)","","","","","5.6","6.3","6.3","34","0","0","3","0","0","金针菇,培根,鱿鱼须,五花肉,肥牛,烤肉,鱿鱼,羊肉卷,韭菜,小馒头,生菜,里脊肉,掌中宝,洋葱,水饺,烤鸡蛋,千叶豆腐","","1","￥49 - 价值59元！ 元始纸上烤肉单人自助餐位","到店消费立减5元"
"10004274","天泰轩酒店","","河南","郑州","zhengzhou","160","金水区","美食","10","豫菜","g1080","金水路与英协路交叉口向南500米(近天佑小区)","曼哈顿/英协路","0371-68818808,68818889","午餐10:00——14:00晚餐17:00——21:30","60","3.0","http://i2.dpfile.com/pc/8395bee275ea030006d29099f11a1077/44919604_m.jpg","","豫菜,曼哈顿/英协路,免费停车,无线上网,可以刷卡,朋友聚餐,商务宴请,可办大型宴会,家庭聚会,情侣约会,有景观位,可自带酒水","7","34.76232","113.71827","113.71827","34.76232","郑州餐厅>>金水区>>曼哈顿/英协路>>豫菜>>天泰轩酒店","","","","","6.4","6.6","6.3","65","1","2","0","0","0","酥不腻烤鸭,烤鸭,糯米排骨,红油小鹿肉,葱烧海参,三色蒸菜,北京小吃,拔丝苹果,干锅西兰花,番茄脆菇沙拉,蒲公英糖葫芦,小酥肉,奇妙虾球,驴打滚,有机花菜,两吃香椿多宝鱼,红花汁豆腐,豌豆黄,烤包子,上汤苋菜,龙虾白菜汤,西红柿炖牛腩,冬笋鹅肝,软兜,雪菜冬笋","","0","",""
"10004291","香蒸府","","四川","成都","chengdu","8","武侯区","美食","10","川菜","g102","科华中路142号","科华北路","028-85595038","每天 10:05 - 22:00","53","3.5","http://i1.dpfile.com/pc/c48b7a234e52f09d49ee169b6f2304cb/38380650_m.jpg","","川菜,科华北路,无线上网,朋友聚餐,休闲小憩,家庭聚会,免费停车,情侣约会,随便吃吃","7","30.61316","104.07684","104.07684","30.61316","成都餐厅>>武侯区>>科华北路>>川菜>>川菜>>香蒸府","","","","","7.3","7.5","7.4","19","4","8","3","0","1","锅边馍馍,羊蝎子,烂肉粉条,粉蒸牛肉,泡红椒,粉蒸排骨,粉蒸鱼,芋儿猪手,糯米排骨,粉蒸肥肠,蒸胡豆,蒸茄子,海带掌,酸辣海带掌","","0","",""
"10004336","肥妈大碗粉牛骨汤(景腾店)","","广东","广州","guangzhou","4","越秀区","美食","10","简餐快餐","g210","惠福东路455号景腾大厦","北京路","","","16","2.0","http://i1.dpfile.com/pc/9c3f15a30617bca3528c320bce8bc766/28096449_m.jpg","","简餐快餐,粥粉面,北京路","7","23.12126","113.26688","113.26688","23.12126","广州餐厅>>越秀区>>北京路>>简餐快餐>>肥妈大碗粉牛骨汤(景腾店)","","","","","5.9","5.8","5.4","10","0","3","3","1","3","牛骨汤,牛骨汤大碗粉","","1","",""
"10004337","老庄镇江锅盖面","","上海","上海","shanghai","1","闸北区","美食","10","小吃快餐","g112","中山北路456号(近西藏北路)","北区汽车站","18202121098","10:00-21:30","20","3.0","http://i1.dpfile.com/pc/f26d4d209683cd8813f5c53a9dcf99cd/40685727_m.jpg","","面馆,陆家嘴","7","31.26264","121.46754","121.46754","31.26264","上海餐厅>>闸北区>>北区汽车站>>小吃快餐>>面馆>>老庄镇江锅盖面","","","","","6.7","6.9","6.7","33","2","9","13","1","3","招牌牛肉面,肴肉面,黄鳝面,辣酱面,菌菇香肠面","","0","",""
"10004387","唐古拉雪莲火锅","","天津","天津","tianjin","10","河西区","美食","10","火锅","g110","广东路广顺园4门1楼6号(近广顺道)","图书大厦","13682166637,13652155741","11:00 —10:00","54","3.0","http://i2.dpfile.com/pc/7d16f73ad20fd3830d2e659864e554ec/44672461_m.jpg","","火锅,图书大厦,免费停车,可以刷卡,无线上网,朋友聚餐,家庭聚会,休闲小憩,情侣约会,供应早餐,有生日优惠,供应夜宵","7","39.10092","117.21587","117.21587","39.10092","天津餐厅>>河西区>>图书大厦>>火锅>>唐古拉雪莲火锅","","","","","6.5","6.7","6.9","24","1","3","0","0","0","羊肉,羊蝎子,雪莲锅,千叶豆腐,羊肉串,自制药酒,干藏羊肉,云吞,土豆粉","","0","￥159 - 价值200元！ 唐古拉雪莲火锅代金券;￥79 - 价值100元！ 唐古拉雪莲火锅代金券;￥85 - 价值180元！ 唐古拉雪莲火锅双人套餐","会员专享8.8折"
"10004388","Q记港饮专门店(中山路店)","","江苏","南京","nanjing","5","鼓楼区","美食","10","面包甜点","g117","中山路248号(近地铁大厦)","南大/南师大","025-84588380","11:00-22:00","27","4.5","http://i1.dpfile.com/pc/df4bb458ed201869350c7c2af309208e/29753046_m.jpg","店面“小小的”，却布置得“清新雅致”，特别是墙上的“藤蔓图案”，十分“有个性”。甜品里最哈芒果西米捞，芒果香味“浓郁”，西米“QQ滑滑”；双皮奶和红豆糕也“蛮地道”。逛街逛“累”了，不妨来这里坐一坐，歇一歇，不要太“惬意”哦。","甜品饮品,南大/南师大,无线上网,休闲小憩,有下午茶,随便吃吃,可送外卖,朋友聚餐,情侣约会","7","32.05265","118.78422","118.78422","32.05265","南京餐厅>>鼓楼区>>南大/南师大>>面包甜点>>甜品饮品>>Q记港饮专门店(中山路店)","","","下午茶","","8.5","8.7","8.7","91","30","38","8","0","1","丝袜奶茶,木糠蛋糕,法式烤布蕾,鲜杂水果小丸子,榴莲班戟,椰汁雪藏,榴莲雪藏,原味木糠蛋糕,港式丝袜奶茶,红豆白雪冰,最佳搭档,鸳鸯咖啡,意式奶冻,奶茶,白雪红豆冰,普洱奶茶,榴莲金露","","1","","会员专享9折"
"10004477","N2冰淇淋","","上海","上海","shanghai","1","静安区","美食","10","面包甜点","g117","南京西路1818号1788广场美食街B1-11室","静安寺","","","29","4.5","http://i2.dpfile.com/pc/2697d72d893cce3371aca9cef720cf2d/40899106_m.jpg","","冰淇淋,静安寺,休闲小憩,随便吃吃,无线上网,可以刷卡,情侣约会","7","31.2224","121.44439","121.44439","31.2224","上海餐厅>>静安区>>静安寺>>面包甜点>>冰淇淋>>N2冰淇淋","","","","","8.6","8.2","8.7","167","47","76","30","2","0","芒果香蕉大杯,芒果香蕉,白巧克力薄荷,草莓酸奶冰淇淋,抹茶分子冰淇淋,抹茶味,爆米花冰淇淋,芒果香蕉分子冰淇淋,榴莲分子冰淇林,猩猩香蕉冰淇淋,黑巧克力焦糖冰糕,紫薯冰淇淋,酸奶冰淇淋,清新抹茶,费列罗榛子","","0","",""
"10004547","daozao料理美术馆(奥帆店)","","山东","青岛","qingdao","21","市南区","美食","10","日本料理","g113","新会路12号（奥帆中心2号门） 中航翔通游艇会一层(近海尔洲际酒店)","香港中路沿线","0532-89098118","午市：11:30-13:30 晚市：17:30-20:30","188","4.0","http://i1.dpfile.com/pc/c84449782582335ee79ec37ee582beee/35140116_m.jpg","","日本料理,自助餐,香港中路沿线,可以刷卡,情侣约会,免费停车,朋友聚餐,无线上网,商务宴请,家庭聚会,有露天位,可自带酒水,有生日优惠","7","36.05786","120.39636","120.39636","36.05786","青岛餐厅>>市南区>>香港中路沿线>>日本料理>>daozao料理美术馆(奥帆店)","","","免费停车","","8.1","8.4","8.2","187","27","24","24","7","7","和风熏牛肉,三文鱼,盐烤鲜虾,芝士蛋糕,鳕鱼西京烧,烤银鳕鱼,帝王蟹肉色拉,甜虾,生鱼片类,哈根达斯,泰风野菜卷,蒜香牛小排,提拉米苏,雅片鱼,焗烤鲜虾,金枪鱼,糕点类,菠萝虾球,鲍片色拉,饮品类,当过牛尾.,香煎鲟鱼,马铃薯色拉,牛舌,热菜们","","1","",""
"10004550","星巴克(万达广场店)","StarBuck","福建","厦门","xiamen","15","集美区","美食","10","咖啡厅","g132","银江路137号万达广场1楼","集美学村","","","34","0.0","http://i3.dpfile.com/pc/4434f7143ab139de572621054dbd40df/32849237_m.jpg","","咖啡厅,集美学村,无线上网","7","24.50429","118.17706","118.17706","24.50429","厦门餐厅>>集美区>>集美学村>>咖啡厅>>星巴克(万达广场店)","","","","","","","","9","0","1","1","0","0","吞拿魚三明治,摩卡（热）,香草星冰樂,中国茶,咖啡星冰乐","","1","",""
"10004593","元祖蛋糕店（舜耕路店）","Ganso","山东","济南","jinan","22","市中区","美食","10","面包甜点","g117","市中区舜耕路60-5号（舜耕路与玉函北路交口）(山东省社会主义学院北临)","济大/会展中心","0531-82766891","8:00-21：00","15","4.0","http://i1.dpfile.com/pc/cb58e95f41dfc4cdf0a5c2f0a7d8c883/43271355_m.jpg","“济南最高级的西点店”之一。他家的东西的确是“用心”做出来的——芝士蛋糕“直接用芝士混合鸡蛋等材料经过冷冻成型”，口味“非常浓郁”；铜锣烧包装“很可爱”，“喜欢叮当猫”的一定得去试一下。店面“精致”、“温馨”，招人“喜欢”。虽然价格“高”了些，但每次经过还是会“忍不住”去买些回来“解解馋”。","面包西点,济大/会展中心,可以刷卡","7","36.61523","117.01674","117.01674","36.61523","济南餐厅>>市中区>>济大/会展中心>>面包甜点>>面包西点>>元祖蛋糕店（舜耕路店）","","","","","7.8","7.9","7.9","20","8","6","3","0","0","元祖生日蛋糕,咖啡卷,桂圆核桃糕,凤梨酥,大福,虎皮卷,铜锣烧,冰皮","","1","￥16.8 - 价值20元！ 元祖蛋糕店代金券1张;￥85 - 价值100元！ 元祖蛋糕店代金券1张;￥42.5 - 价值50元！ 元祖蛋糕店代金券1张",""
"10004641","金簋小山城(大连店)","","辽宁","大连","dalian","19","西岗区","美食","10","火锅","g110","高尔基路199号(上岛咖啡对面)","奥林匹克广场","0411-84394700","10：00—24:00点餐到23:30","93","3.0","http://i2.dpfile.com/pc/5c92a942f830da06bd5b8b0d310fd647/40173076_m.jpg","","火锅,奥林匹克广场","7","38.90236","121.60383","121.60383","38.90236","大连餐厅>>西岗区>>奥林匹克广场>>火锅>>金簋小山城(大连店)","","","","","6.7","7.1","7.0","19","2","1","0","0","0","馋嘴蛙锅,传统鸳鸯锅,馋嘴蛙,川北凉粉,小龙虾","","0","￥78 - 价值100元！ 金簋小山城代金劵",""
"10004660","Caffebene(莘庄龙之梦店)","咖啡陪你","上海","上海","shanghai","1","闵行区","美食","10","其他","g118","沪闵路6088号凯德龙之梦1楼39号(观光电梯旁)","莘庄","021-54716887","","43","4.5","http://i2.dpfile.com/pc/82313e9a69e6f4b6302b79ff76c91c89/39169774_m.jpg","","更多咖啡厅,莘庄,无线上网,可以刷卡,有下午茶,休闲小憩,情侣约会,有露天位,朋友聚餐,随便吃吃,有无烟区,商务宴请","7","31.10814","121.37769","121.37769","31.10814","上海餐厅>>闵行区>>莘庄>>其他>>咖啡厅>>更多咖啡厅>>Caffebene(莘庄龙之梦店)","","","外送,早餐,下午茶","","8.4","9.0","8.8","363","105","117","63","14","8","冰激凌华夫,华夫饼,青葡萄莫西多,奥趣黑白刨冰,绿茶冰沙,摩卡冰沙,焦糖香蕉华夫,焦糖拿铁,芒果刨冰,白摩卡,咖啡,焦糖肉桂吐司,陪你猪排,抹茶刨冰,蓝莓酸奶华夫饼,焦糖香蕉华夫饼,香草冰沙,拿铁,蓝莓奶油芝士华夫,蓝莓酸奶格子饼,蒜香面包,柚子花开,白摩卡冰沙,香草拿铁,咖啡刨冰","","1","",""
"10004675","米迦勒砂锅米线","","广东","深圳","shenzhen","7","福田区","美食","10","小吃快餐","g112","上步南路玉丰楼(近上步大厦)","华强南","0755-83628819","11：00-22：00","16","0.0","http://i2.dpfile.com/pc/e3ea34e1a13e4c9561a9d74b8aa8b87d/28057936_m.jpg","","粥粉面,华强南,无线上网","7","22.53816","114.09613","114.09613","22.53816","深圳餐厅>>福田区>>华强南>>小吃快餐>>粥粉面>>米迦勒砂锅米线","","","","","","","","7","5","2","0","0","0","菇类砂锅米线","","0","",""
"10004677","重庆巴巴烫火锅(长发银座店)","","江苏","南京","nanjing","5","秦淮区","美食","10","火锅","g110","洪武路199号长发银座1楼(近户部街)","新街口地区","","10:00至凌晨4点","53","0.0","http://i2.dpfile.com/pc/60c530f4a5bae6a24be0acd15c2229e7/30389989_m.jpg","","火锅,新街口地区","7","32.03556","118.78751","118.78751","32.03556","南京餐厅>>秦淮区>>新街口地区>>火锅>>重庆巴巴烫火锅(长发银座店)","","","","","","","","8","0","0","2","0","0","牛蛙火锅（大份）","","1","",""
"10004679","兆果炭烧","","辽宁","沈阳","shenyang","18","和平区","美食","10","烧烤","g508","安图北街(近珲春北路)","西塔","024-62800877","10：30－23：00","88","0.0","http://i3.dpfile.com/pc/2bcffccf912d11803949ab928a65a196/43094492_m.jpg","","烤串,西塔,无线上网,有下午茶,有露天位,朋友聚餐,休闲小憩,可送外卖,供应夜宵,家庭聚会,免费停车,有无烟区","7","41.80917","123.41004","123.41004","41.80917","沈阳餐厅>>和平区>>西塔>>烧烤>>烤串>>兆果炭烧","","","","","","","","10","1","1","0","0","0","扇贝,羊肉味道,发财锅,生蚝,蔬菜汇,虾蟹侬,炭烤脑花,黑鱼俩吃,黑鱼串,肉筋串,沙茶锅,总经理冷面,牛筋炖羊肉,烤扇贝,黑鱼两吃","","0","",""
"10004876","祥和怡家","","上海","上海","shanghai","1","徐汇区","美食","10","本帮江浙菜","g101","宛平南路404号(近零陵路)","肇嘉浜路沿线","021-54245270","10：00-24：00","49","2.0","http://i2.dpfile.com/pc/8fec9e269101dead7c13024ef4e72767/28040110_m.jpg","","本帮菜,肇嘉浜路沿线,可送外卖","7","31.19054","121.44763","121.44763","31.19054","上海餐厅>>徐汇区>>肇嘉浜路沿线>>本帮江浙菜>>本帮菜>>祥和怡家","","","","","5.6","6.1","5.7","18","0","1","1","2","0","干煸茶树菇,双椒鱼头,锅包肉,沙津牛排,沙律小牛排,沙律牛排","","0","",""
"10004935","扇贝盛宴","扇贝海鲜烧烤","黑龙江","哈尔滨","haerbin","79","道里区","美食","10","鱼菜/海鲜","g251","哈药路32号(近真味楼)","新阳路","0451-84521957","9:00-24:00","44","3.0","http://i1.dpfile.com/pc/34a198989d5201b6e91d8f6a457182d2/29270403_m.jpg","","海鲜,新阳路,有露天位,休闲小憩,朋友聚餐","7","45.74819","126.61148","126.61148","45.74819","哈尔滨餐厅>>道里区>>新阳路>>鱼菜/海鲜>>海鲜>>扇贝盛宴","","","","","6.8","6.6","6.2","28","8","3","5","3","4","碳烤生蚝,辣炒黄蚬子,蒜蓉扇贝,麻辣小龙虾,蒜蓉粉丝扇贝,辣炒海螺丝","","0","￥48 - 价值96元！ 扇贝盛宴双人套餐;￥90 - 价值100元！ 扇贝盛宴代金券",""
"10004948","亮仔甜品","","陕西","西安","xian","17","碑林区","美食","10","小吃快餐","g112","兴庆路常春藤花园华润万家1楼","金花路沿线","","","12","0.0","http://i2.dpfile.com/pc/c87639a5a13da9fe5690d8a9e687522a/28041085_m.jpg","","熟食/甜食,金花路沿线","7","34.2483","108.98996","108.98996","34.2483","西安餐厅>>碑林区>>金花路沿线>>小吃快餐>>熟食/甜食>>亮仔甜品","","","","","","","","5","0","2","0","0","0","酸奶","","0","",""
"10004972","来烫麻辣烫(建外soho店)","","北京","北京","beijing","2","朝阳区","美食","10","小吃快餐","g112","东三环中路39号建外SOHO东区8号楼2楼(近马妈妈Mamama)","国贸","010-57201857","早9:00-晚9:00 周日休息","29","3.0","http://i3.dpfile.com/pc/e95fc80cb3e0bbc357d7544d3bbe54c0/30400451_m.jpg","","麻辣烫,国贸,休闲小憩,随便吃吃,无线上网,可送外卖,朋友聚餐,情侣约会,有下午茶","7","39.9057","116.45818","116.45818","39.9057","北京餐厅>>朝阳区>>国贸>>小吃快餐>>麻辣烫>>来烫麻辣烫(建外soho店)","","","","","6.1","6.9","6.7","16","1","3","4","1","1","麻辣烫,招牌宽粉,北冰洋,蔬菜炒米,招牌大宽粉,蔬菜炒饭,食神蛋炒饭","","0","",""
"10004975","锦华玉食梁山鸡","","四川","成都","chengdu","8","青羊区","美食","10","火锅","g110","金阳路中段121号农业银行旁广场内","金沙","028-69168733","10:30-22:30","48","3.0","http://i2.dpfile.com/pc/d979fe70ea63a2df8e4c7e81a7a484f8/28064026_m.jpg","","其他火锅,金沙,免费停车,无线上网,家庭聚会,情侣约会,朋友聚餐","7","30.68022","104.00334","104.00334","30.68022","成都餐厅>>青羊区>>金沙>>火锅>>其他火锅>>锦华玉食梁山鸡","","","","","6.7","6.7","6.6","26","2","1","0","0","0","白味药膳滋补鸡,红味药膳滋补鸡（,现炸酥肉,红味药膳滋补鸡","","0","￥168 - 价值276元！ 锦华玉食梁山鸡8人套餐;￥98 - 价值160元！ 锦华玉食梁山鸡4人美食套餐;￥90 - 价值152元！ 锦华玉食梁山鸡4人滋补套餐;￥148 - 价值252元！ 锦华玉食梁山鸡8人滋补套餐;￥69 - 价值100元！ 锦华玉食梁山鸡代金券;￥35 - 价值50元！ 锦华玉食梁山鸡代金券;￥60 - 价值104元！ 锦华玉食梁山鸡2人滋补排骨套餐;￥68 - 价值106元！ 锦华玉食梁山鸡2人凉山鸡套餐",""
"10004978","犇面馆","","黑龙江","哈尔滨","haerbin","79","南岗区","美食","10","小吃快餐","g112","学府路1-1号凯德广场B1楼","学府路","13936437077","","16","3.0","http://i3.dpfile.com/pc/07cf1c311f53fc1f75ae5fe4227d7fd0/43504040_m.jpg","","小吃快餐,学府路","7","45.71762","126.61084","126.61084","45.71762","哈尔滨餐厅>>南岗区>>学府路>>小吃快餐>>犇面馆","","","","","6.1","6.7","6.8","15","1","2","3","4","1","原汁牛肉面,干豆腐丝,豆芽拌菜","","0","￥9.8 - 价值13元！ 犇面馆面食3选1;￥14.9 - 价值19元！ 犇面馆单人套餐",""
"10004982","Yogo Juice","优果时光","辽宁","大连","dalian","19","甘井子区","美食","10","面包甜点","g117","高新园区黄浦路500号万达广场","高新园区","0411-39680004","每天 09:30 - 21:30","30","3.5","http://i3.dpfile.com/pc/a001efe5d3aba921c1334fbc6e5d26d8/45043508_m.jpg","","甜品饮品,高新园区,休闲小憩,有下午茶,可以刷卡,情侣约会,无线上网","7","38.86229","121.5322","121.5322","38.86229","大连餐厅>>甘井子区>>高新园区>>面包甜点>>甜品饮品>>Yogo Juice","","","","","7.1","7.4","7.3","31","6","7","6","1","1","多芒旋风,无敌草莓,抗氧化大王,香蕉耶耶,香草冰激凌,神奇麦青,奇维百香果,木瓜雪吻,天堂夏威夷,卡布奇诺,拿铁（热）,吮指花生,香蕉椰椰,黑巧摩卡（热）,黑巧摩卡（冰）,焦糖玛奇朵（冰）,焦糖玛奇朵（热）,拿铁（冰）,浓缩,榛果拿铁（ 冰）,榛果拿铁（热）,黑加仑冰激凌,可可冰激凌,芒果冰激凌,有机紫薯奶","","0","",""
"10004991","清浦烧烤","","辽宁","沈阳","shenyang","18","和平区","美食","10","烧烤","g508","市府大路126号(近朝鲜族礼仪宫)","西塔","024-23460330","","36","4.0","http://i2.dpfile.com/pc/a1b97bf318aeaf96e20eb4b83964195a/42819064_m.jpg","","烧烤,西塔,无线上网","7","41.80487","123.41445","123.41445","41.80487","沈阳餐厅>>和平区>>西塔>>烧烤>>清浦烧烤","","","","","7.8","7.8","7.8","22","9","3","2","1","0","风干肠,去骨牛排,大脸盆拌冷面","","0","￥119 - 价值192元！ 清浦烧烤4人套餐;￥35 - 价值50元！ 清浦烧烤价值50元代金券;￥75 - 价值100元！ 清浦烧烤价值100元代金券",""
"10005036","许留山(天一店)","","浙江","宁波","ningbo","11","海曙区","美食","10","面包甜点","g117","中山东路(都市厨房)","天一广场","0574-87229107","10:00-23:00","33","4.0","http://i3.dpfile.com/pc/cc1f3e131545ef6a566a69734a138928/42181682_m.jpg","","甜品,天一广场,是老字号,休闲小憩,情侣约会,有下午茶,朋友聚餐,可以刷卡,随便吃吃","7","29.86935","121.55487","121.55487","29.86935","宁波餐厅>>海曙区>>天一广场>>面包甜点>>甜品>>许留山(天一店)","","","下午茶","","8.2","8.3","8.2","87","25","21","16","7","2","多芒小丸子,芒果班戟,多芒小丸子和雪糍,多捞小丸子,紫薯西米捞,超多芒果水晶杯,嫩麦西米捞,多芒亮晶晶,杨枝甘露,芝麻糊捞杏仁露,什果燕窝杨枝金捞","","1","",""
"10005051","可百尼尼","Crêpanini","北京","北京","beijing","2","东城区","美食","10","小吃快餐","g112","南锣鼓巷33号(近南锣鼓巷北口)","地安门","","每天","21","3.0","http://i3.dpfile.com/pc/cb8fb5b5c5956247b4883e14010601e5/44405633_m.jpg","","西式简餐,三里屯","7","39.939","116.40311","116.40311","39.939","北京餐厅>>东城区>>地安门>>小吃快餐>>可百尼尼","","","","","6.8","6.9","6.9","27","5","11","5","3","1","马卡龙","","0","",""
"10005074","斗牛士牛排餐厅舟山店","","浙江","舟山","zhoushan","107","定海区","美食","10","西餐","g116","解放西路106号太平洋百货4楼","人民中路","0580-2932277","每天 11:00 - 22:00","89","3.0","http://i1.dpfile.com/pc/e52cec11e6ae6e32df1d95737504fa5e/28940373_m.jpg","","西餐,人民中路,中大街","7","30.01562","122.10382","122.10382","30.01562","舟山餐厅>>定海区>>人民中路>>西餐>>斗牛士牛排餐厅舟山店","","","","","6.9","6.7","6.7","10","1","0","0","0","0","沙朗牛排","","0","",""
"10005163","木槿花韩国料理","","江苏","苏州","suzhou","6","工业园区","美食","10","韩国料理","g114","独墅湖星月坊商业街(近湘膳独墅湖店 螺蛳饭店)","独墅湖大学城","0512-62388222","每天 09:30 - 21:30","59","4.0","http://i2.dpfile.com/pc/fb2baa557e0a3c0a7804c3126717ab6c/28537567_m.jpg","","韩国料理,独墅湖大学城,免费停车,无线上网","7","31.26021","120.72205","120.72205","31.26021","苏州餐厅>>工业园区>>独墅湖大学城>>韩国料理>>木槿花韩国料理","","","免费停车","","7.8","8.0","7.9","58","9","14","12","2","1","吾桑格,猪五花,牛肉蘑菇火锅,秋刀鱼,铁板豆腐","","0","￥78 - 价值100元！ 木槿花韩国料理代金券1张;￥105 - 价值179元！ 木槿花韩国料理双人套餐;￥225 - 价值327元！ 木槿花韩国料理4人套餐;￥325 - 价值505元！ 木槿花韩国料理6人套餐",""
"10005175","和米堂(天山店)","","上海","上海","shanghai","1","长宁区","美食","10","日本","g113","天山路900号汇金百货B1楼(近娄山关路)","天山","13371911972","每天 10: 00 -- 22: 00","15","4.5","http://i2.dpfile.com/pc/672602c350e8bf5d1be7d90e1524ee62/44017894_m.jpg","","寿司/简餐,饮品,天山,可送外卖,随便吃吃,休闲小憩,有下午茶,无线上网","7","31.21148","121.40502","121.40502","31.21148","上海餐厅>>长宁区>>天山>>日本>>寿司/简餐>>和米堂(天山店)","","","外送","","8.5","8.2","8.5","178","60","65","27","8","4","原味章鱼烧,鸡蛋色拉章鱼烧,芥末章鱼烧,培根芝士章鱼烧,大虾章鱼烧,德式香肠,鸡蛋沙拉,章鱼烧,芥末味","","1","￥18 - 价值30元！ 和米堂金枪鱼章鱼烧小丸子组合双人份套餐;￥9.9 - 价值16元！ 和米堂肉松章鱼烧;￥20 - 价值30元！ 和米堂全店通用代金券",""
"10005220","疯味派甜筒比萨(金安店)","","黑龙江","哈尔滨","haerbin","79","道里区","美食","10","西餐","g116","中央大街69号金安国际B1楼(近百联超市出口)","中央大街","15945682885","","14","3.0","http://i2.dpfile.com/pc/c3a69e00caf4dfc10e2908de41ef823e/36709105_m.jpg","","其他西餐,中央大街","7","45.77137","126.61988","126.61988","45.77137","哈尔滨餐厅>>道里区>>中央大街>>西餐>>其他西餐>>疯味派甜筒比萨(金安店)","","","","","6.5","6.8","7.1","19","4","2","6","5","1","没有","","1","￥9.9 - 价值15元！ 疯味派甜筒比萨7选1",""
"10005270","旺角站车仔面","","广东","广州","guangzhou","4","天河区","美食","10","小吃","g217","体育东路31号(近天河邮局公交站)","天河城/体育中心","","周一,周二,周三,周四,周五,周六 9: 00 -- 24: 00","17","3.0","http://i1.dpfile.com/pc/ef649c1642b55ee791951179fd0d3fa5/43462860_m.jpg","","粥粉面,天河城/体育中心,随便吃吃,无线上网","7","23.12966","113.32788","113.32788","23.12966","广州餐厅>>天河区>>天河城/体育中心>>小吃>>粥粉面>>旺角站车仔面","","","","","6.4","7.1","7.2","25","2","2","11","6","2","牛杂,牛筋,猪肠净食,牛腩,车仔面,上汤支竹","","0","",""
"10005369","汉烤客自助烤肉","","湖北","武汉","wuhan","16","洪山区","美食","10","自助餐","g111","纺织路1号华罗利广场1楼(近民族大道)","光谷/鲁巷","027-87598572","11:30-14:00 17:00-21:00","47","0.0","http://i2.dpfile.com/pc/84c1bcfae618ac5bfa33cedc2bca3d3a/28670383_m.jpg","","自助餐,光谷/鲁巷,无线上网,供应夜宵","7","30.48589","114.39907","114.39907","30.48589","武汉餐厅>>洪山区>>光谷/鲁巷>>自助餐>>汉烤客自助烤肉","","","","","","","","28","2","0","0","0","0","肥牛,鸡尾虾,培根,鸡杂,可乐","","0","",""
"10005370","5觉亚系概念连锁自助餐厅","","广东","广州","guangzhou","4","花都区","美食","10","自助餐","g111","花都区龙珠路39号来又来广场4楼4056铺(近大润发、广百新一城)","","020-89682628,89682188","10：00-------22：00","59","3.0","http://i1.dpfile.com/pc/bad36b60057192891da756e4a6118925/28049778_m.jpg","","自助餐,免费停车,朋友聚餐,无线上网,随便吃吃,休闲小憩,情侣约会","7","23.39721","113.232","113.232","23.39721","广州餐厅>>花都区>>自助餐>>自助餐>>5觉亚系概念连锁自助餐厅","","","","","5.8","6.4","6.4","23","1","1","1","0","1","火锅,水晶板烧,自助餐,烤羊排，牛排,奶茶，啤酒,甲鱼，黄鳝","","0","￥58 - 价值83元！ 5觉亚系概念连锁自助餐厅单人自助晚餐;￥38 - 价值63元！ 5觉亚系概念连锁自助餐厅下午场自助餐1位;￥48 - 价值73元！ 5觉亚系概念连锁自助餐厅单人自助午餐",""
"10005458","尚品签味","","四川","成都","chengdu","8","成华区","美食","10","火锅","g110","八里小区新风路(近加油站)","建设路","18200323336","每天 17:00 - 24:00","36","2.0","http://i2.dpfile.com/pc/ce737efa598527dd8a3442198bdadb74/28049374_m.jpg","","其他火锅,建设路,无线上网,有露天位,供应夜宵,随便吃吃","7","30.68579","104.11059","104.11059","30.68579","成都餐厅>>成华区>>建设路>>火锅>>其他火锅>>尚品签味","","","","","6.0","6.1","5.9","30","1","1","0","1","1","芒果类甜品,牛肉,冰淇淋球杯,芒果小丸子","","0","",""
"10005465","蠔太郎私房烧烤(凤城六路店)","","陕西","西安","xian","17","未央区","美食","10","烧烤/烤鱼","g508","凤城六路(近未央路)","未央路沿线","029-89290080","每天 18: 00 -- 3: 00","71","4.0","http://i1.dpfile.com/pc/f0bf114d010173c04a27582939cf0937/43197138_m.jpg","","烧烤/烤鱼,未央路沿线,朋友聚餐,供应夜宵","7","34.33352","108.94366","108.94366","34.33352","西安餐厅>>未央区>>未央路沿线>>烧烤/烤鱼>>蠔太郎私房烧烤(凤城六路店)","","","","","7.8","7.8","7.4","31","7","10","3","4","0","烤生蚝,锡纸金针菇,烤茄子,烤油饼,烤油馍,脑花,玉米,香辣蟹,烤金针菇,锡纸毛肚,锡纸鸭头,锡纸甲鱼,烤干鱿鱼,烤韭菜,锡纸翅中,鲜墨鱼大烤,粉丝,土豆片","","1","","小菜免费送"
"10005486","1788广场地下美食街","","上海","上海","shanghai","1","静安区","美食","10","小吃快餐","g112","南京西路1818号1788广场B1美食街内(近华山路)","静安寺","","","33","3.5","http://i2.dpfile.com/pc/05dcf2630facf0844dab75c9e1f50bb4/32021071_m.jpg","","小吃快餐,静安寺,无线上网","7","31.22222","121.44437","121.44437","31.22222","上海餐厅>>静安区>>静安寺>>小吃快餐>>1788广场地下美食街","","","","","7.2","7.7","7.5","55","1","28","18","4","1","冰淇淋,铁板豆芽牛肉饭,芒果优酪乳","","0","",""
"10005515","包旺锅贴(南京西路店)","","上海","上海","shanghai","1","静安区","美食","10","小吃快餐","g112","南京西路580号南证大厦4楼167美食广场内(成都北路)","南京西路","","10:00-21:00","17","3.0","http://i1.dpfile.com/pc/9e8dd7a899084dd17059026507d5af53/41354082_m.jpg","","锅贴,南京西路,可送外卖,供应早餐,有下午茶,无线上网","7","31.23102","121.46626","121.46626","31.23102","上海餐厅>>静安区>>南京西路>>小吃快餐>>锅贴>>包旺锅贴(南京西路店)","","","","","5.8","6.2","6.5","17","1","3","6","0","1","锅贴,皮蛋瘦肉粥,大份海鲜砂锅,炸猪排,咖喱牛肉粉丝汤,萝卜牛腩饭","","1","",""
"10005554","大糖","","广东","深圳","shenzhen","7","罗湖区","美食","10","面包甜点","g117","聚宝路17号祥和花园A20号2商铺(工商银行对面)","莲塘","0755-25728754","","25","3.0","http://i3.dpfile.com/pc/7c02da7cd980d96ad98f13becdafda7e/28894082_m.jpg","","甜品饮料,莲塘,休闲小憩,无线上网,可送外卖,朋友聚餐,有下午茶,情侣约会,随便吃吃","7","22.56174","114.16912","114.16912","22.56174","深圳餐厅>>罗湖区>>莲塘>>面包甜点>>甜品饮料>>大糖","","","","","6.3","6.6","6.7","16","0","2","1","0","0","双皮奶,心太软,杨枝甘露,芒果布丁,杏仁茶,芒果冰沙,芒果班戟,咸柠七","","0","",""
"10005620","过桥缘(同成街店)","","北京","北京","beijing","2","昌平区","美食","10","小吃快餐","g112","同成街华联商厦4楼(回龙观地铁对面)","回龙观","","","29","3.0","http://i3.dpfile.com/pc/da09d98b7a593d08605e56073ce0c697/39138197_m.jpg","","粉面馆,回龙观","7","40.07179","116.33695","116.33695","40.07179","北京餐厅>>昌平区>>回龙观>>小吃快餐>>粉面馆>>过桥缘(同成街店)","","","","","6.5","7.0","6.4","27","3","6","10","2","3","过桥米线,抹茶红豆,番茄米线,山珍米线,铁板烧米线","","1","",""
"10005709","港仔茶餐厅(世贸店)","Coolboy Tea Restaurant","辽宁","沈阳","shenyang","18","和平区","美食","10","粤菜","g103","文体路世贸百货1楼(近市图书馆)","五里河","","工作日 10:00 - 24:00","70","3.5","http://i2.dpfile.com/pc/f73891c3630d3ecf55ad1d41c8532a85/38193664_m.jpg","","粤菜,五里河,可以刷卡,有下午茶,免费停车","7","41.76068","123.43117","123.43117","41.76068","沈阳餐厅>>和平区>>五里河>>粤菜>>港仔茶餐厅(世贸店)","","","","","7.2","7.8","7.2","20","2","6","7","0","1","榴莲酥,芒果冰淇淋,虾饺皇,牛柳粒,葡萄酒冰淇淋","","1","",""
"10005760","甜蔻","","重庆","重庆","chongqing","9","沙坪坝区","美食","10","面包甜点","g117","渝碚路66号三峡广场煌华新纪元购物广场LG楼","三峡广场","023-88626690","","22","3.0","http://i2.dpfile.com/pc/ebe238884a8d219ab9ccd80e9f3ac7dd/43705096_m.jpg","","甜品饮料,三峡广场,无线上网,休闲小憩,有下午茶,情侣约会,朋友聚餐","7","29.55807","106.46192","106.46192","29.55807","重庆餐厅>>沙坪坝区>>三峡广场>>面包甜点>>甜品饮料>>甜蔻","","","","","6.1","6.1","6.4","14","0","2","1","0","0","疯狂提拉米苏,绝世超芒,抹茶冰,芒果芝士华尔兹,榴莲冰棒泰国进口,摩卡爪哇咖啡,就是爱搅和,芒果的,芝士蛋糕,芋圆,芒果冰","","0","",""
"10005813","味之源烤鱼","","浙江","杭州","hangzhou","3","淳安县","美食","10","川菜","g102","淳安县千岛湖镇新安南路8-26号(千岛湖广场旁)","千岛湖","15968119861","15：00-3:00","62","0.0","http://i3.dpfile.com/pc/e9cc13204db0be76a7b683cd2628dc14/37639763_m.jpg","","川菜,千岛湖","7","29.60047","119.05316","119.05316","29.60047","杭州餐厅>>淳安县>>千岛湖>>川菜>>味之源烤鱼","","","","","","","","7","6","0","1","0","0","招牌烤鱼","","0","",""
"10005819","吉祥馄饨(九亭青年城店)","Gll Wonton","上海","上海","shanghai","1","松江区","美食","10","小吃快餐","g112","九亭青年城118号(近九亭地铁)","九亭","18317013335","","14","3.0","http://i3.dpfile.com/pc/3527c1b8ce2436044997ec41d43b6fbd/29265653_m.jpg","","馄饨,九亭,可送外卖,无线上网","7","31.13665","121.31681","121.31681","31.13665","上海餐厅>>松江区>>九亭>>小吃快餐>>馄饨>>吉祥馄饨(九亭青年城店)","","","外送","","6.8","6.8","6.7","11","0","1","0","0","0","茶树菇","","1","",""
"10005868","小宋对虾串吧(市府店)","小宋香辣虾","辽宁","沈阳","shenyang","18","沈河区","美食","10","烧烤","g508","惠工街55号卓展东门(渔夫码头烧烤店南侧)","北站/市府","024-66865777,13898150777","每天 16:00 - 24:00","67","3.0","http://i2.dpfile.com/pc/4b79caf74f85461ae9dd71ca2f6c0f08/30111778_m.jpg","","烤串,北站/市府,供应夜宵,有表演,无线上网","7","41.8096","123.4368","123.4368","41.8096","沈阳餐厅>>沈河区>>北站/市府>>烧烤>>烤串>>小宋对虾串吧(市府店)","","","","","6.6","7.1","6.7","38","2","8","6","1","3","烤虾,来一炮,蒜蓉扇贝,肉串,黄蚬子,捞拌,土豆丝,蛋头,石锅黄蚬子,on……,and,小宋烤虾","","1","",""
"10005886","海上仙舟","","广东","广州","guangzhou","4","海珠区","美食","10","简餐快餐","g210","逸景西路珠江国际纺织城6楼D区60661号","新港西路","","","20","0.0","http://i2.dpfile.com/pc/7e158063235cf7711c1235949915ec89/30308521_m.jpg","","台湾菜,天河北","7","23.08225","113.29971","113.29971","23.08225","广州餐厅>>海珠区>>新港西路>>简餐快餐>>海上仙舟","","","","","","","","11","0","1","1","0","0","炸五香,肉末茄子,海上仙粥,老火汤,青菜,秋刀鱼,海蛎煎,肉粽,椰子卷,四季豆饭,炸醋肉,仙舟炒粉,泉州牛肉羹","","1","",""
"10005894","青雨石韩国自助料理餐厅","","湖北","武汉","wuhan","16","洪山区","美食","10","韩国料理","g114","卓刀泉特1号虎泉购物广场美食城5楼","卓刀泉","027-59359033","","42","3.5","http://i3.dpfile.com/pc/9ac265b2892d64f67e2c3e3892a2fe0a/35642345_m.jpg","","韩国料理,自助餐,卓刀泉,无线上网,随便吃吃,情侣约会,朋友聚餐","7","30.5141","114.36911","114.36911","30.5141","武汉餐厅>>洪山区>>卓刀泉>>韩国料理>>青雨石韩国自助料理餐厅","","","","","7.2","7.5","7.8","55","12","9","7","2","5","白色的鱼,寿司,肉卷金针菇,炸鸡腿,扇贝,鱿鱼块,五花肉,港式奶茶,培根金针菇","","0","￥43 - 价值69元！ 青雨石韩国自助料理餐厅自助晚餐1位;￥39 - 价值69元！ 青雨石韩国自助料理餐厅自助午餐;￥419 - 价值430元！ 青雨石韩国自助料理餐厅 晚市10人自助餐","会员专享6.5折"
"10005897","犇丼铁板烧(银江店)","","浙江","杭州","hangzhou","3","上城区","美食","10","西餐","g116","建国中路302号银江宾馆一楼","庆春路沿线","0571-86479829","","197","4.0","http://i3.dpfile.com/pc/d552fb861b66468865c4ca48a39d69fa/35042240_m.jpg","","其他西餐,庆春路沿线,可以刷卡,朋友聚餐,免费停车,情侣约会,无线上网,家庭聚会","7","30.25787","120.18105","120.18105","30.25787","杭州餐厅>>上城区>>庆春路沿线>>西餐>>其他西餐>>犇丼铁板烧(银江店)","","","","","7.7","7.7","7.8","27","7","8","3","1","1","樱花虾炒饭,熔岩巧克力,香葱牛肉,咖啡","","1","","会员专享9.5折"
"10005965","米斯特比萨(迎春路店)","Mr.Pizza","上海","上海","shanghai","1","浦东新区","美食","10","西餐","g116","芳甸路199弄大拇指广场1楼(近唐鱼儿火锅)","世纪公园","021-50766223,50766201","11:00-22:00","73","4.5","http://i1.dpfile.com/pc/401aaad3429867080b6494f8c51b20c5/44557800_m.jpg","","比萨,世纪公园,可以刷卡,无线上网,有露天位,朋友聚餐,休闲小憩,情侣约会,随便吃吃,可送外卖,家庭聚会","7","31.2261","121.55956","121.55956","31.2261","上海餐厅>>浦东新区>>世纪公园>>西餐>>比萨>>米斯特比萨(迎春路店)","","","外送","","8.9","8.5","8.6","126","42","45","15","2","0","金牌土豆,德克萨斯牧场,原味烤翅,洋葱圈,海鲜岛匹萨,奶香玉米汤,鸡翅,德克萨斯牛仔,缤纷夏日套餐,烤鸡胸色拉,烧烤鸡胸沙拉,金牌海鲜岛,肋排,蘑菇汤,薯格,夏威夷披萨,皇家奶茶","","1","",""
"10005975","炫多天下第一粉","","上海","上海","shanghai","1","长宁区","美食","10","小吃快餐","g112","仙霞西路397弄(近康大菜市场)","北新泾","021-52667762","周一,周二,周三,周四,周五,周六 9: 00 -- 23: 00","12","0.0","http://i3.dpfile.com/pc/dd9c90807ea18a094c124ec997f537a6/36545429_m.jpg","","小吃,北新泾","7","31.20831","121.36521","121.36521","31.20831","上海餐厅>>长宁区>>北新泾>>小吃快餐>>小吃>>炫多天下第一粉","","","","","","","","6","0","1","0","0","0","麻辣烫,糟肉粉","","0","",""
"10007286","呷哺呷哺(回龙观华联二店)","","北京","北京","beijing","2","昌平区","美食","10","火锅","g110","育知东路华联购物中心4层(近城铁回龙观站)","回龙观","","","41","3.5","http://i1.dpfile.com/pc/0ac447511d6fc457e542d2d12f308dd4/43479747_m.jpg","","其他火锅,回龙观,可以刷卡,随便吃吃","7","40.07275","116.33622","116.33622","40.07275","北京餐厅>>昌平区>>回龙观>>火锅>>其他火锅>>呷哺呷哺(回龙观华联二店)","","","","","7.3","7.4","7.6","23","6","11","4","0","1","肥牛套餐,味增酱,咖喱锅底,麻辣锅底,老油条","","1","",""
"10007292","Oyster Talks 蚝吧","","北京","北京","beijing","2","朝阳区","美食","10","西餐","g116","工体东门(近mix)","三里屯","010-65526065","11：30至22：00","655","4.0","http://i3.dpfile.com/pc/d38195a610c3c64dbd7a86c893cce543/32444405_m.jpg","","西餐,三里屯,无线上网,可以刷卡,情侣约会,休闲小憩,朋友聚餐,商务宴请,家庭聚会,可送外卖,有午市套餐,供应夜宵","7","39.9313","116.44839","116.44839","39.9313","北京餐厅>>朝阳区>>三里屯>>西餐>>Oyster Talks 蚝吧","","","午市套餐,下午茶","","8.2","8.2","8.2","47","22","5","2","0","0","生蚝,法国生蚝,蒜蓉面包,野菌松露意大利面,澳洲和牛,白葡萄酒,火腿,干邑龙虾汤,龙鲜虾意面,银鳕鱼,法国蓝龙虾,新西兰珍珠,餐前面包,心太软,奶冻,焗西红柿,野菌松露汤,伊朗野生黑鱼子,南非生蚝,南非,芝士碟,菠菜生蚝,芥末羊架,焦糖炖蛋,西班牙火腿4年","","0","",""
"10007383","镰仓PASTA(泰康路店)","","上海","上海","shanghai","1","卢湾区","美食","10","西餐","g116","徐家汇路618号日月光广场1楼(近泰康路)","打浦桥","021-64268309","","62","4.0","http://i1.dpfile.com/pc/3ebc996622236b002492454021ad1553/38022768_m.jpg","","意大利菜,打浦桥,可以刷卡,无线上网,情侣约会,朋友聚餐,随便吃吃,休闲小憩,有露天位,家庭聚会,有景观位","7","31.20758","121.46895","121.46895","31.20758","上海餐厅>>卢湾区>>打浦桥>>西餐>>意大利菜>>镰仓PASTA(泰康路店)","","","","","8.1","8.2","8.3","375","70","144","97","25","12","羊角包,镰仓风味肉酱意面,海胆鲑鱼子意面,三文鱼墨鱼奶油意面,龙虾汤,土豆沙拉,墨鱼彩蔬意面,牛尾汤,寿喜锅意大利面,鸡肉培根意大利面,脆虾墨鱼奶油意面,焦糖布丁,纳豆秋葵意面,烤三文鱼番茄意面,墨鱼奶油意面,菌菇浓汤,帝王蟹蕃茄意面,芒果牛奶雪花冰,海鲜沙拉,和风圣代,面包,青口扇贝罗勒意面,海胆xx面！,鲑鱼子意面,抹茶红豆雪花冰","","1","",""
"10007677","侬家大院","","浙江","宁波","ningbo","11","海曙区","美食","10","宁波江浙","g101","气象路(农工商超市后面)","西门口","0574-87168777","10:30-20：30","40","0.0","http://i2.dpfile.com/pc/6779b0dce5ea0f175788fd22be5bbfbc/37283215_m.jpg","","农家菜,西门口","7","29.86063","121.52447","121.52447","29.86063","宁波餐厅>>海曙区>>西门口>>宁波江浙>>农家菜>>侬家大院","","","","","","","","18","0","1","1","0","0","招牌仔排,糯米青蟹,糯米蚧","","0","",""
"10007701","必胜客(新都荟店)","Pizza Hut","广东","广州","guangzhou","4","海珠区","美食","10","西餐","g116","东晓南路1290号海珠新都荟广场(近地铁东晓南站)","东晓南","020-84151599","","50","3.5","http://i2.dpfile.com/pc/20bb8c41c90da55e5ad59ae4d81d83cf/39119647_m.jpg","","比萨,东晓南,有下午茶,随便吃吃","7","23.07304","113.2923","113.2923","23.07304","广州餐厅>>海珠区>>东晓南>>西餐>>比萨>>必胜客(新都荟店)","","","下午茶","","7.0","7.7","7.0","40","3","6","12","5","7","抹茶雪域蛋糕,抹茶芝士慕斯蛋糕,经典意式肉酱面,冰柠檬红茶,鸡茸蘑菇汤,布法罗香鸡翅,焦糖玛奇朵,酥皮雪花牛肉芝心,芝士焗大虾","","1","",""
"10007821","许大牛海鲜烧烤","泥炉烤肉、炒菜","辽宁","沈阳","shenyang","18","铁西区","美食","10","朝韩料理","g114","兴工南街16号2门（兴工南街小五路）(欢唱后身)","铁西广场","024-31419257,18624055757","10:00 - 22:00","79","0.0","http://i3.dpfile.com/pc/6f881b5b610c1fd771c69e4dddb428f0/28138961_m.jpg","","朝韩料理,铁西广场","7","41.78835","123.38169","123.38169","41.78835","沈阳餐厅>>铁西区>>铁西广场>>朝韩料理>>许大牛海鲜烧烤","","","","","","","","13","1","0","0","0","0","许大牛,大扇贝,冷面,烤扇贝","","0","￥99 - 价值201元！ 许大牛海鲜烧烤4人套餐;￥56 - 价值111元！ 许大牛海鲜烧烤双人套餐2选1;￥39 - 价值50元！ 许大牛海鲜烧烤代金券1张",""
"10007836","大宝披萨","","天津","天津","tianjin","10","河东区","美食","10","西餐","g116","八纬路丰盛园1号楼4门102室(音乐学院对面)","大直沽","022-84316550,18698122338","9:30-19:30","30","2.0","http://i3.dpfile.com/pc/91ae0fecf2885667767db67caff93e42/28484714_m.jpg","","比萨,大直沽,可送外卖,无线上网,休闲小憩","7","39.11522","117.23449","117.23449","39.11522","天津餐厅>>河东区>>大直沽>>西餐>>比萨>>大宝披萨","","","外送","","5.6","5.9","6.1","25","0","1","2","0","0","奥尔良披萨,黑椒牛肉披萨,薯条,洋葱圈,甜蜜蜜披萨","","0","￥49 - 价值75元！ 大宝披萨双人圣诞套餐2选1;￥89 - 价值160元！ 大宝披萨3-4人圣诞套餐",""
"10007873","武圣烤羊腿","","北京","北京","beijing","2","朝阳区","美食","10","小吃快餐","g112","农光路沙板庄小学西侧50米(武圣路火车头西行150米路北)","劲松/潘家园","13051306943","下午17:30-02:00","71","4.5","http://i1.dpfile.com/pc/60f81919ebdeec7de05e484a8d280c38/30572523_m.jpg","","烧烤,劲松/潘家园,朋友聚餐,无线上网,有露天位,免费停车,供应夜宵,随便吃吃,休闲小憩,家庭聚会","7","39.88216","116.4653","116.4653","39.88216","北京餐厅>>朝阳区>>劲松/潘家园>>小吃快餐>>烧烤>>武圣烤羊腿","","","免费停车","","8.4","8.0","8.7","99","28","27","7","1","0","烤羊腿,烤扇贝,炸土豆片,绝味土豆片,秘制鸡翅,秘制排骨,烤韭菜,大肉串,大肉筋,烤生蚝,烤茄子,烤鸡胗,秘制酸梅汤,烤鱼豆腐,皮蛋豆腐,土豆丝,麻辣鸡脖,烤香菇,烤鸡翅,烤腰子,烤羊排,大腰子,羊腿,鸡胗,烤玉米","","0","",""
"10007931","Chateau De Kc法国餐厅","","广东","广州","guangzhou","4","海珠区","美食","10","西餐","g116","江湾桥南怡安路246-264号B6铺(近江湾路)","滨江路","020-84386382","早上10:30~晚上11:30","95","3.0","http://i2.dpfile.com/pc/d46c21ec0d741fb05b43905a0c08aadb/31027237_m.jpg","","法国菜,滨江路,无线上网,有下午茶,情侣约会,朋友聚餐,休闲小憩,可以刷卡,供应早餐,有午市套餐,有无烟区,有露天位","7","23.10782","113.27482","113.27482","23.10782","广州餐厅>>海珠区>>滨江路>>西餐>>法国菜>>Chateau De Kc法国餐厅","","","下午茶","","6.1","6.5","6.8","76","0","2","7","1","0","法式香煎鹅肝,蒜蓉法包,马赛海鲜炒饭,鸡尾酒,提拉米苏,法国顶级西冷牛扒,墨鱼汁意粉,顶级西冷,香煎深海大虾,心太软,浓情醉意心太软,深海大虾,鹅肝,法式早午餐,纽西兰顶级牛仔骨,香煎深海鲶鱼,小食拼盘,黑咖啡,法式海虾配秘制沙,罗马场,鲜榨橙汁,松露汤,法式牛尾汤,法国之巴黎恋情,布根地牛扒","","0","￥198 - 价值590元！ Chateau De Kc法国餐厅海陆空双人套餐","会员专享9折"
"10007938","仙芋世家(天山汇金店)","","上海","上海","shanghai","1","长宁区","美食","10","面包甜点","g117","天山路900号汇金百货B1楼(近娄山关路)","天山","18201888917,18817779817","每天 10: 00 -- 22: 00","16","5.0","http://i2.dpfile.com/pc/f7d04fbc2b9b4371f54dd1ed4b593564/41173513_m.jpg","","港台甜品,天山,可送外卖,随便吃吃,休闲小憩,可以刷卡,有下午茶,朋友聚餐,情侣约会","7","31.21148","121.40498","121.40498","31.21148","上海餐厅>>长宁区>>天山>>面包甜点>>港台甜品>>仙芋世家(天山汇金店)","","","外送","","9.0","8.7","9.0","183","80","45","28","6","1","招牌芋圆,招牌仙草,绵绵冰,招牌美人汤,芋泥1号,紫薯,豆花,仙草芋园,红豆遇上酒酿,奶酪一号,薏仁,经典芋圆,超级综合红茶,爆米花,哈密瓜绵绵冰,芋圆4号,芋圆招牌,绿茶芋圆","","1","￥10.8 - 价值18元！ 仙芋世家仙芋世家单品18选1",""
"10007940","松柏海鲜大排档","","辽宁","大连","dalian","19","中山区","美食","10","烧烤","g508","昆明街(李连贵熏肉大饼对面)","青泥洼桥","0411-84990662","24小时","49","0.0","http://i2.dpfile.com/pc/6117f248fd208e5d28c62a7e0ae5e6fc/39095974_m.jpg","","烧烤,青泥洼桥","7","38.91441","121.64023","121.64023","38.91441","大连餐厅>>中山区>>青泥洼桥>>烧烤>>松柏海鲜大排档","","","","","","","","6","0","0","2","0","0","白灼章鱼,牛筋肉,烤虾,锡纸金针菇,蒜泥扇贝,烤四头鲍","","0","",""
"10007972","晟隆汤包面馆","","上海","上海","shanghai","1","嘉定区","美食","10","小吃快餐","g112","墨玉南路1055号嘉亭荟城市生活广场内(近曹安公路)","安亭","","","16","3.0","http://i2.dpfile.com/pc/cb49a483171f7aaae712b8fb789d9adf/39926485_m.jpg","","面馆,安亭","7","31.28841","121.16072","121.16072","31.28841","上海餐厅>>嘉定区>>安亭>>小吃快餐>>面馆>>晟隆汤包面馆","","","","","6.1","6.3","6.5","10","0","3","5","1","0","菜肉大馄饨,辣肉酱,荷包蛋,小馄饨,汤包,菌菇汤包,炸酱面,香菇鸡仔面","","0","",""
"10008027","三个湖北人","","海南","三亚","sanya","345","三亚市区","美食","10","其他","g118","河东路555号凤凰水城31号(近三亚凯莱酒店)","三亚湾","","每天","52","0.0","http://i3.dpfile.com/pc/77a238844ffe48afcc3e33121ac94a3b/45029684_m.jpg","","其他中餐,三亚湾","7","18.28072","109.49405","109.49405","18.28072","三亚餐厅>>三亚市区>>三亚湾>>其他>>其他中餐>>三个湖北人","","","","","","","","9","3","4","0","0","2","大白刁,老街臭鳜鱼,铁板土豆片,红烧大白刁,热干面,藕夹,皮蛋豆腐,这一桌两百多,酸辣藕丁,酸溜土豆丝,清炒小白菜","","0","",""
"10008032","衢州农家菜","","浙江","宁波","ningbo","11","江东区","美食","10","宁波江浙","g101","江南公路568号欧宝大酒店1楼","体育中心","","","54","3.0","http://i2.dpfile.com/pc/05e299812016b24f72cc2964a013fe28/42513229_m.jpg","","农家菜,月湖公园","7","29.88798","121.61377","121.61377","29.88798","宁波餐厅>>江东区>>体育中心>>宁波江浙>>江浙菜>>衢州农家菜","","","","","6.7","6.8","6.8","5","1","2","0","0","0","青番茄,鸭头,炖黄鸭叫,炒三思,秋葵,野猪肉,红烧鱼头,黄鸭叫,鹅掌,豆腐汪刺鱼","","0","",""
"10008059","蜜菓蜜制鲜饮","","江苏","苏州","suzhou","6","平江区","美食","10","面包甜点","g117","邵磨针巷98号(人民商场南门对面)","观前街地区","15895441165","09:00--23:00","7","3.0","http://i1.dpfile.com/pc/1447d33e1e372387912f5ab50ecb0beb/32669757_m.jpg","","甜品饮料,观前街地区","7","31.3097","120.62389","120.62389","31.3097","苏州餐厅>>平江区>>观前街地区>>面包甜点>>甜品饮料>>蜜菓蜜制鲜饮","","","","","6.4","6.6","6.6","42","1","2","1","0","0","红豆布丁可可,柠檬探戈","","0","",""
"10008076","福顺兴汤包馆","","上海","上海","shanghai","1","闸北区","美食","10","小吃快餐","g112","临汾路1080号(近曲沃路)","彭浦新村","021-56320007","周一,周二,周三,周四,周五,周日 06:00 - 21:00","15","2.0","http://i1.dpfile.com/pc/c41c40490e6a889577b57119248deae0/28565646_m.jpg","","小笼,北新泾","7","31.31077","121.45177","121.45177","31.31077","上海餐厅>>闸北区>>彭浦新村>>小吃快餐>>小笼>>福顺兴汤包馆","","","","","5.9","6.2","6.1","8","0","1","3","0","0","鲜肉汤包","","0","",""
"10008090","香三荷","","上海","上海","shanghai","1","松江区","美食","10","小吃快餐","g112","松汇中路654号(一中对面)","松江镇","13917037397","每天 10: 00 -- 20: 00","14","0.0","http://i3.dpfile.com/pc/a92795e86e0d85cf87f1e39eabe4c854/28081592_m.jpg","","小吃快餐,松江镇,可送外卖","7","31.00489","121.23261","121.23261","31.00489","上海餐厅>>松江区>>松江镇>>小吃快餐>>香三荷","","","","","","","","5","2","3","0","0","0","糖醋排骨,炸鸡腿,黄瓜塞肉,炒刀豆,百叶包塞肉,番茄炒蛋,大咸肉,大碗骨头汤,炒三鲜,肉蒸蛋,凉拌黄瓜,番茄蛋花汤,油爆虾,韭黄炒蛋,10元套餐,扎肉,咖喱牛肉,腊鸡腿,清蒸鲈鱼,炒豆芽","","0","",""
"10008106","弄里食堂","","上海","上海","shanghai","1","虹口区","美食","10","小吃快餐","g112","西江湾路126号赚食馆美食街内(近花园路)","虹口足球场","13386055219,13501942448","每天 9: 00 -- 20: 00","20","3.5","http://i2.dpfile.com/pc/c24d9b5ec7be18567471e80db5049ce2/33065707_m.jpg","","快餐简餐,虹口足球场,可送外卖,有露天位,随便吃吃","7","31.26718","121.47854","121.47854","31.26718","上海餐厅>>虹口区>>虹口足球场>>小吃快餐>>快餐简餐>>弄里食堂","","","外送","","7.4","7.4","8.0","36","11","10","8","2","3","炸猪排,罗宋汤,肉丝炒面,咸肉菜饭,酸梅肉,鱼香肉丝盖浇饭,弄里红烧肉,元宝虾,弄里炒年糕,海鲜蛋炒饭,椒盐基围虾,椒盐排条,鱼香茄子,弄里蛋炒饭,美极杏鲍菇,鱼香肉丝,菜饭,团购套餐,排骨海带汤,糖醋排条,回锅肉,弄里冷泡茶","","0","",""
"10008120","k7Pizza","快去送","北京","北京","beijing","2","西城区","美食","10","西餐","g116","手帕口北街9号(近天虹百货)","广外大街","4008585727,63269447","AM10:00 - PM22:00","43","3.0","http://i3.dpfile.com/pc/996e3203f557ece6ca2cc67312bdaa56/40875983_m.jpg","","比萨,广外大街,可送外卖","7","39.89113","116.33932","116.33932","39.89113","北京餐厅>>西城区>>广外大街>>西餐>>比萨>>k7Pizza","","","外送","","6.1","6.3","6.5","19","1","2","1","0","0","土耳其披萨,美式腊肠,豪华至尊,香荤至尊,鸡肉BBQ,夏威夷,超级至尊,香荤至尊12寸,培根至尊,香浓芝士12寸,金枪鱼披萨","","0","",""
"10008210","品辣重庆老火锅","","上海","上海","shanghai","1","静安区","美食","10","火锅","g110","北京西路1068号食博汇2楼(近江宁路)","南京西路","021-62127880","中午11：00--次日凌晨5：00","109","4.5","http://i1.dpfile.com/pc/66f2515acad8fe033a4dd10b5aa11b8e/36535398_m.jpg","","火锅,南京西路,无线上网,可以刷卡,朋友聚餐,随便吃吃,免费停车,休闲小憩,供应夜宵,情侣约会,24小时营业,商务宴请","7","31.23081","121.45458","121.45458","31.23081","上海餐厅>>静安区>>南京西路>>火锅>>品辣重庆老火锅","","","夜宵,免费停车","","8.3","8.4","8.6","338","71","81","58","22","15","毛肚,麻辣鲶鱼片,鸳鸯牛油锅底,虾滑,雪花牛肉,热气羊肉,鸳鸯锅,鹅肠,自制手工虾丸,品辣鲶鱼片,鲜黄喉,杏鲍菇,秋葵,墨鱼滑,墨鱼蛋,麻辣牛油锅,金针菇,九宫格锅底,蔬菜拼盘,腰片,牛肝,鳝鱼,老油条,老豆腐,品辣黑鱼片","","0","￥78 - 价值100元！ 品辣重庆老火锅代金券",""
"10008212","小食牛道朝鲜酱汤牛排火锅","","上海","上海","shanghai","1","嘉定区","美食","10","火锅","g110","鹤旋路16号(近江桥万达)","江桥","021-69979968,13764046930","10:00-23:00","54","4.5","http://i1.dpfile.com/pc/9b6d9ca09ed11fc6f948868168619409/28245336_m.jpg","","火锅,江桥,无线上网,供应夜宵,免费停车,朋友聚餐,可以刷卡,可送外卖,家庭聚会,休闲小憩,情侣约会,有露天位","7","31.23886","121.32552","121.32552","31.23886","上海餐厅>>嘉定区>>江桥>>火锅>>火锅>>小食牛道朝鲜酱汤牛排火锅","","","","","8.5","8.1","8.5","172","48","44","33","3","5","牛排火锅,酱汤牛排,冰镇小龙虾,秘制酱汤牛排锅,精选进口牛排,大酱,小龙虾,冰镇龙虾","","0","￥98 - 价值202元！ 小食牛道朝鲜酱汤牛排火锅2-3人套餐;￥188 - 价值355元！ 小食牛道朝鲜酱汤牛排火锅3-4人套餐;￥258 - 价值405元！ 小食牛道朝鲜酱汤牛排火锅6-8人套餐;￥388 - 价值605元！ 小食牛道朝鲜酱汤牛排火锅6-8人套餐",""
"10008303","中意客手工披萨","Pizza Factory","江苏","无锡","wuxi","13","南长区","美食","10","西餐","g116","运河东路557号时代国际大厦C栋1楼(近无锡图书馆)","清扬路","18626322795,82735334","","29","4.0","http://i1.dpfile.com/pc/b701b4063feef9e4a343b1113e54006d/42483294_m.jpg","","比萨,清扬路,无线上网,可送外卖,休闲小憩,有下午茶,随便吃吃,供应早餐,情侣约会,可以刷卡","7","31.54635","120.30417","120.30417","31.54635","无锡餐厅>>南长区>>清扬路>>西餐>>比萨>>中意客手工披萨","","","","","8.1","8.0","8.3","35","19","8","5","0","1","经典肉粒至尊披萨,薯条,夏威夷披萨,金枪鱼披萨,番茄马苏里拉披萨,意式萨拉米披萨,提拉米苏,海盐雪梨茶,海盐奶绿,素什锦披萨","","0","￥8.8 - 价值10元！ 中意客手工披萨代金券;￥58 - 价值127元！ 中意客手工披萨双人披萨套餐;￥28 - 价值33元！ 中意客手工披萨提拉米苏加丝袜奶茶单人套餐;￥28 - 价值40元！ 中意客手工披萨大理石纹芝士蛋糕加蜂蜜柚子茶单人餐;￥87 - 价值100元！ 中意客手工披萨代金券;￥400 - 价值485元！ 中意客手工披萨静吧套餐“纯”爷们","消费满20元送一杯饮料"
"10008315","古道茶楼","古道茶香","上海","上海","shanghai","1","静安区","美食","10","其他","g118","胶州路609号恒森广场(近昌平路)","同乐坊","021-52919587","10：00~1：00","56","3.5","http://i2.dpfile.com/pc/81827b4e0946b1ca6705705e256292f6/29677645_m.jpg","","茶馆,同乐坊,无线上网,有下午茶,可以刷卡,朋友聚餐,随便吃吃,免费停车,家庭聚会,情侣约会","7","31.23513","121.43972","121.43972","31.23513","上海餐厅>>静安区>>同乐坊>>其他>>茶馆>>古道茶楼","","","","","7.0","7.5","7.5","28","3","10","8","5","0","闷烧鸡爪","","0","￥56 - 价值98元！ 古道茶楼7小时休闲自助茶餐",""
"10008404","拿渡麻辣香锅(回龙观店)","","北京","北京","beijing","2","昌平区","美食","10","川菜","g102","同城街华联4楼(回龙观地铁站对面)","回龙观","","每天 09:30 - 21:30","67","4.0","http://i1.dpfile.com/pc/9218a29066c1aee75a5cf91dd41c18aa/39977682_m.jpg","","香锅,回龙观,可以刷卡,休闲小憩,是老字号,家庭聚会,情侣约会,朋友聚餐,随便吃吃,商务宴请,免费停车,有下午茶","7","40.07159","116.33657","116.33657","40.07159","北京餐厅>>昌平区>>回龙观>>川菜>>香锅>>拿渡麻辣香锅(回龙观店)","","","","","7.6","7.9","7.7","43","7","10","15","0","0","麻辣香锅,豆浆不错,口水鸡","","1","",""
"10008411","MOMO's CAFE","","天津","天津","tianjin","10","和平区","美食","10","其他","g118","睦南道35号(近新华路)","五大道","022-23312519","11：00-22:00","30","4.0","http://i2.dpfile.com/pc/141080901cf11a7ed5d3af43a43e4418/39513364_m.jpg","","咖啡厅,五大道,无线上网,有下午茶,休闲小憩,有露天位,情侣约会,免费停车,朋友聚餐,有无烟区,随便吃吃,可以刷卡","7","39.11193","117.20948","117.20948","39.11193","天津餐厅>>和平区>>五大道>>其他>>咖啡厅>>MOMO's CAFE","","","下午茶","","8.1","8.3","8.4","79","20","10","5","1","1","拿铁咖啡,马卡龙,芒果华夫饼,拿铁,焦糖布丁,焦糖玛琪朵,盆栽奶茶,香草华夫,摩卡,蓝山咖啡,美式咖啡,布丁,龙舌兰日出,越南咖啡,风味拿铁,马天尼,蔓越莓沙冰,朗姆特饮,芒果奶昔,卡布奇诺,蓝莓苏打水,团购四人餐,抹茶缤纷乐,莫吉托,华夫饼","","0","",""
"10008429","Mr.Z Coffee","张先生的咖啡店","江苏","南京","nanjing","5","鼓楼区","美食","10","其他","g118","车站东巷8-1号(紫峰购物广场北侧)","南大/南师大","025-82210137","10：30-22：30","25","0.0","http://i1.dpfile.com/pc/26e1c614d690808d4e47146395f89f14/32703918_m.jpg","","咖啡厅,南大/南师大","7","32.0618","118.78294","118.78294","32.0618","南京餐厅>>鼓楼区>>南大/南师大>>其他>>咖啡厅>>Mr.Z Coffee","","","","","","","","5","4","0","0","0","1","卡布其诺,瑞士纯白巧克力,普洱茶,桂花酸梅汤,夏日特饮,曲奇冰沙","","0","",""
"10008448","法铁1号","","福建","厦门","xiamen","15","思明区","美食","10","西餐","g116","莲花南路9号冶金大厦1楼","莲花","0592-5588215,5588216","11:30-14:00，17:00-22:00","170","3.5","http://i3.dpfile.com/pc/71f5b2b4d3984ca6e278c1796a9837f9/31274930_m.jpg","","其他西餐,莲花,无线上网,免费停车,可以刷卡,家庭聚会,商务宴请,情侣约会,朋友聚餐,有表演,可自带酒水,有午市套餐","7","24.48264","118.12597","118.12597","24.48264","厦门餐厅>>思明区>>莲花>>西餐>>其他西餐>>法铁1号","","","","","7.2","7.8","7.4","39","7","5","7","0","5","蛋糕,雪花牛排,扇贝,焦糖布丁,巴黎红酒牛舌,鹅肝蒸蛋,煎小牛排,牛舌","","0","",""
"10008473","大龙燚火锅(玉林店)","","四川","成都","chengdu","8","武侯区","美食","10","火锅","g110","二环路南三段9号附3号(近玉林生活广场)","玉林","028-85226200","周一：中午不营业（节假日除外），下午4：00—凌晨05:00；周二至周日：每天上午11:00—凌晨05:00","77","4.0","http://i1.dpfile.com/pc/23c6ce89f1a9a40b45a3eacf5089b731/36718377_m.jpg","","其他火锅,玉林,无线上网,供应夜宵,朋友聚餐,可以刷卡,家庭聚会,是老字号","7","30.62035","104.05872","104.05872","30.62035","成都餐厅>>武侯区>>玉林>>火锅>>其他火锅>>大龙燚火锅(玉林店)","","","","","8.2","7.5","7.9","171","37","47","25","9","12","天味香肠,坨坨牛肉,毛肚,蛋炒饭,牛肉,麻辣牛肉,现炸酥肉,鸭肠,脑花,黄喉,山药,卤肥肠,嫩牛肉,通威鱼皮,午餐肉,大龙牛肝,锅低,黄喉儿,百香果汁,嫩肉片,莴笋片,苞谷耙,香油碟,无骨鸭蹼,五花肉","","1","",""
"10008506","鲜芋仙(七彩店)","","云南","昆明","kunming","267","盘龙区","美食","10","面包甜点","g117","白塔路七彩ME TOWN购物中心负一层-25","白塔路","","工作日","23","3.0","http://i1.dpfile.com/pc/27cdab6ae039fa4078f04982adbd1f97/40544127_m.jpg","","面包甜点,白塔路","7","25.03599","102.72679","102.72679","25.03599","昆明餐厅>>盘龙区>>白塔路>>面包甜点>>鲜芋仙(七彩店)","","","","","6.3","6.8","6.5","7","2","3","1","1","0","冬瓜柠檬茶,芋圆4号,芋圆3号,芋圆紫米粥,招牌芋园,豆浆冰沙2号,仙草鲜奶茶,绿豆豆花,芋园1号,红豆牛奶冰,椰香紫米粥,杏仁奶冻,仙草冻奶茶,芋圆","","1","",""
"10008510","猫的天空之城概念书店(万达广场店)","momi cafe","辽宁","大连","dalian","19","甘井子区","美食","10","其他","g118","黄浦路500号万达广场2楼2009号","高新园区","0411-39021780","早上10点到晚上10点","28","3.5","http://i3.dpfile.com/pc/90eca509fc191d8b223efa97776c2b96/32411378_m.jpg","","咖啡厅,高新园区,书店,明信片,无线上网,可以刷卡,休闲小憩,有下午茶,情侣约会,免费停车,随便吃吃","7","38.86208","121.5321","121.5321","38.86208","大连餐厅>>甘井子区>>高新园区>>其他>>咖啡厅>>猫的天空之城概念书店(万达广场店)","","","","","6.8","7.6","7.5","119","5","20","10","3","2","丝袜奶茶,明信片,咖啡,手工艺品,卡布奇诺,木糠布丁,美式","","1","￥14.5 - 价值30元！ 猫的天空之城概念书店经典套餐/纪念套餐2选1;￥24.5 - 价值50元！ 猫的天空之城概念书店纪念套餐",""
"10008593","叁可馡","","湖南","长沙","changsha","344","雨花区","美食","10","面包甜点","g117","桔园立交桥他城B42号铺(近铁道学院)","铁道/林科大","18073136035","每天 10: 30 -- 22: 30","12","0.0","http://i1.dpfile.com/pc/f34582de387be15355d7ecedb36340db/28121007_m.jpg","","甜品饮料,铁道/林科大","7","28.14562","112.99322","112.99322","28.14562","长沙餐厅>>雨花区>>铁道/林科大>>面包甜点>>甜品饮料>>叁可馡","","","","","","","","6","5","1","0","0","0","银耳枸杞粥,仙草,芋圆,杨枝金捞","","0","",""
"10008600","小叫天","小叫天泡椒活田鸡","福建","福州","fuzhou","14","台江区","美食","10","其他","g118","广达路73号金广达酒店楼下","茶亭世茂","0591-83312903,13599384112","","32","0.0","http://i3.dpfile.com/pc/b6b871587d8716922f03675f00a2d508/28489943_m.jpg","","其他中餐,茶亭世茂","7","26.06915","119.30824","119.30824","26.06915","福州餐厅>>台江区>>茶亭世茂>>其他>>其他中餐>>小叫天","","","","","","","","7","0","1","0","0","0","泡椒活田鸡！,葱油花蛤,小龙虾,泡椒活田鸡","","0","",""
"10008629","阿国碳烤羊腿(仙鹤街店)","","江苏","南京","nanjing","5","秦淮区","美食","10","小吃快餐","g112","仙鹤街36号","升州路/集庆路","18502509777","每天 10:00 - 24:00","135","0.0","http://i3.dpfile.com/pc/35f27a45e2024dd6ff6683b75ea71676/42327365_m.jpg","","烧烤,升州路/集庆路,供应夜宵","7","32.02089","118.77518","118.77518","32.02089","南京餐厅>>秦淮区>>升州路/集庆路>>小吃快餐>>烧烤>>阿国碳烤羊腿(仙鹤街店)","","","","","","","","14","0","1","0","0","1","羊腿,羊肉大串,羊油包腰,羊腰,鱿鱼须","","1","￥15.9 - 价值20元！ 阿国碳烤羊腿代金券1张;￥228 - 价值390元！ 阿国碳烤羊腿3-4人套餐;￥228 - 价值388元！ 阿国碳烤羊腿3-4人套餐;￥48 - 价值128元！ 阿国碳烤羊腿羊蝎子1份","会员专享9.5折"
"10008630","老港记甜品","","四川","成都","chengdu","8","郫县","美食","10","面包甜点","g117","郫县东大街(恒创?太平洋对面)","","18628143365","每天 09:30 - 21:00","27","0.0","http://i3.dpfile.com/pc/5e885fb915a94c4183b98e08edcba7d7/29124065_m.jpg","","面包糕点","7","30.79998","103.89668","103.89668","30.79998","成都餐厅>>郫县>>面包甜点>>面包糕点>>老港记甜品","","","","","","","","6","5","0","0","0","1","金菊柚子茶","","0","",""
"10008679","Maan coffee(万和汇店)","漫咖啡","辽宁","大连","dalian","19","金州新区","美食","10","其他","g118","开发区万和汇1楼","开发区","","","51","3.5","http://i1.dpfile.com/pc/44620f352c6e9f172c2d5c5b35758f91/45101466_m.jpg","","咖啡厅,开发区","7","39.05424","121.78266","121.78266","39.05424","大连餐厅>>金州新区>>开发区>>其他>>咖啡厅>>Maan coffee(万和汇店)","","","","","7.3","8.0","7.5","28","9","9","2","1","3","美式双份,华夫饼,韩式烤肉汉堡,蓝柠汽水,原味松饼,榛果拿铁,热巧克力,蓝莓冰激凌松饼,水果冰淇淋松饼","","1","",""
"10008696","真好味","","上海","上海","shanghai","1","杨浦区","美食","10","小吃快餐","g112","政通路1号(近国宾路)","五角场/大学区","","","12","0.0","http://i3.dpfile.com/pc/1e6423e80ae2c299324435b63c472ca4/42647885_m.jpg","","小吃快餐,五角场/大学区","7","31.12176","121.42211","121.42211","31.12176","上海餐厅>>杨浦区>>五角场/大学区>>小吃快餐>>真好味","","","","","","","","7","1","2","0","0","0","炒河粉,超超超辣味蛋炒饭,炒乌冬,营养蛋炒饭,炒粉丝","","0","",""
"10008727","春山禾茶","","浙江","杭州","hangzhou","3","上城区","美食","10","日本料理","g113","延安路258号湖滨银泰2期B047","湖滨","0571-85870365","","59","4.0","http://i3.dpfile.com/pc/cee5dc4963c92a657f595669541db291/32033048_m.jpg","","日本料理,湖滨,无线上网,可以刷卡,有下午茶,休闲小憩,朋友聚餐,情侣约会,随便吃吃,家庭聚会,有午市套餐","7","30.25248","120.1643","120.1643","30.25248","杭州餐厅>>上城区>>湖滨>>日本料理>>春山禾茶","","","下午茶","","8.1","8.4","8.2","646","114","172","173","43","32","豚肉卷芦笋,抹茶雪顶,牛肉饭,三文鱼,抹茶盐大虾,抹茶饮,鹅肝寿司,海鲜汤,咖喱牛腩饭,芒果蓝莓卷,三文鱼八切,红豆抹茶软冰,咖喱猪扒饭,鳗鱼加州卷,花式天妇罗,芒果蟹籽沙律,土豆沙拉,牛仔骨,脆脆卷,抹茶手工巧克力,烤鱼,原味芝士蛋糕,蓝莓芒果卷,脆脆,缤纷水果沙律","","0","￥138 - 价值250元！ 春山禾茶双人套餐;￥68 - 价值140元！ 春山禾茶双人下午茶","会员专享8.8折"
"10008738","巴山春雨","","北京","北京","beijing","2","朝阳区","美食","10","川菜","g102","清河营南街7号华贸天地1楼C10室","北苑家园","010-56019069,13321137347","早10：00-晚10：","59","3.0","http://i1.dpfile.com/pc/30889ccbecf00779122f4eea59cbf997/35313801_m.jpg","","川菜,北苑家园,可以刷卡,家庭聚会,朋友聚餐,无线上网,有景观位,随便吃吃","7","40.04748","116.43174","116.43174","40.04748","北京餐厅>>朝阳区>>北苑家园>>川菜>>川菜>>巴山春雨","","","","","6.4","7.0","6.6","30","0","6","7","3","3","砂锅有机花菜,哑巴蛙,精品麻婆豆腐,笋干木耳,凉面,冷锅鲢鱼,砂锅豆角丝,烤蛙,回锅肉,腊肉青椒炒鸡蛋,金牌黄辣丁,毛氏红烧肉","","0","￥85 - 价值100元！ 巴山春雨代金券;￥58 - 价值68元！ 巴山春雨巴山烤鱼;￥46 - 价值48元！ 巴山春雨蜀都香水仔兔1份",""
"10008741","C Gourmet","","上海","上海","shanghai","1","卢湾区","美食","10","西餐","g116","建国中路155弄12号前门(近瑞金二路)","打浦桥","021-54199300","每天 11:00 - 02:00","215","4.0","http://i3.dpfile.com/pc/e16933517eab795d32720ec0d7eac26b/45362696_m.jpg","","西餐,打浦桥,无线上网,情侣约会,可以刷卡,有下午茶,有露天位,朋友聚餐,有景观位,有午市套餐,洋房别墅","7","31.20868","121.46807","121.46807","31.20868","上海餐厅>>卢湾区>>打浦桥>>西餐>>C Gourmet","","","下午茶","","7.5","8.0","8.1","104","12","19","6","1","2","芝士法国面包蟹,生蚝,和牛牛排,牛排,下午茶,美国顶级内眼牛排,蓝莓芝士蛋糕,炸春鸡,美国肉眼,蓝龙虾,碳烤,碳烤牛肉汉堡,美味下午茶套餐,威士忌,帝王蟹,自制草莓拿破仑,鹅肝,蟹味海鲜意大利饭,牛肉汉堡78,碳烤澳洲肉眼88,芝士大虾焗饭,烤童子鸡","","0","",""
"10008763","杨记烧烤炒菜","","上海","上海","shanghai","1","闵行区","美食","10","小吃快餐","g112","镇西路陇南市场125号(近罗秀路)","南方商城","13127583881","每天 14: 00 -- 7: 00","45","0.0","http://i3.dpfile.com/pc/d6999781b6352b9b9af16236e355c4ed/44521208_m.jpg","","烧烤,南方商城","7","31.12805","121.41145","121.41145","31.12805","上海餐厅>>闵行区>>南方商城>>小吃快餐>>烧烤>>杨记烧烤炒菜","","","","","","","","9","5","4","0","0","0","烤鲶鱼,鲜带子,扇贝,带子,羊肉串,赖尿 虾,龙虾,小炒肉`","","0","",""
"10008771","蓝港海鲜厨房(金水路店)","","山东","青岛","qingdao","21","李沧区","美食","10","海鲜","g251","金水路1577-9号(虎山体育场旁)","李村","0532-68079999,68072222","11:00—22:00","83","0.0","http://i1.dpfile.com/pc/0fc681d46d0e0b6bcddfa9b1eb658be0/43233939_m.jpg","","海鲜,婚宴酒店,李村,免费停车,可以刷卡,可办大型宴会,商务宴请,家庭聚会,朋友聚餐","7","36.17664","120.4161","120.4161","36.17664","青岛餐厅>>李沧区>>李村>>海鲜>>蓝港海鲜厨房(金水路店)","","","","","","","","11","5","0","2","0","4","手工饺子,家常烧鱼,香椿手撕黄花鱼,草莓炒百合,大头菜炒螺片,剔骨肉拌茄子,酸辣汤活海参,炖盅活海参","","1","",""
"10008779","frio 酸奶优淇淋(1788广场店)","酸奶冰淇淋","上海","上海","shanghai","1","静安区","美食","10","面包甜点","g117","南京西路1818号1788广场美食街B1-08(静安寺地铁1号口)","静安寺","13916513513","早上10点到晚上10点","25","3.5","http://i2.dpfile.com/pc/897afefc4dd546ae3cac17ea6460ceb3/44293600_m.jpg","","冰淇淋,静安寺,随便吃吃","7","31.22204","121.44376","121.44376","31.22204","上海餐厅>>静安区>>静安寺>>面包甜点>>冰淇淋>>frio 酸奶优淇淋(1788广场店)","","","","","6.9","7.2","7.2","19","2","7","9","0","0","原味酸奶冰淇淋,青苹果酸奶冰淇淋","","0","",""
"10008795","犇牛士林夜市牛排","","上海","上海","shanghai","1","静安区","美食","10","西餐","g116","南京西路1818号1788广场美食街B1-15(近华山路)","静安寺","021-62243052","","38","3.5","http://i2.dpfile.com/pc/39b5127445b1176aabd76da57467a25b/29233141_m.jpg","","牛排,静安寺,无线上网,可以刷卡","7","31.22204","121.44376","121.44376","31.22204","上海餐厅>>静安区>>静安寺>>西餐>>牛排>>犇牛士林夜市牛排","","","","","6.8","7.5","7.2","64","8","15","18","7","5","夜市铁板牛排,水果沙拉,牛排,夜市牛排,碳烤牛肉串,鸡排套餐,海鲜蛋包饭","","0","￥78 - 价值128元！ 正宗台北吴记麻辣火锅超值双人套餐",""
"10008799","香港传奇(先农大院店)","","天津","天津","tianjin","10","和平区","美食","10","粤菜","g103","洛阳道先农大院(湖南路口)","五大道","022-58352838","10：00-02：00","87","4.5","http://i2.dpfile.com/pc/184d58657b9963ee6c64702d9acff82f/45152566_m.jpg","","茶餐厅,五大道,可以刷卡,无线上网,朋友聚餐,情侣约会,休闲小憩,有露天位,供应夜宵,有下午茶,家庭聚会,随便吃吃","7","39.11509","117.20493","117.20493","39.11509","天津餐厅>>和平区>>五大道>>粤菜>>茶餐厅>>香港传奇(先农大院店)","","","下午茶,夜宵","","8.7","8.9","9.0","161","54","58","18","6","3","冰火菠萝包,水晶虾饺,丝袜奶茶,经典腊味煲仔饭,咖喱鱼蛋,烧味拼盘,鲜虾云吞面,干炒牛河,肠粉,鲜虾云呑面,港式厚多士,鲜虾春卷,燕麦流沙包,清炒菜心,椰汁马蹄糕,XO酱炒萝卜糕,香煎腊味萝卜糕,叉烧包,椰汁马蹄,肥肠粉,烧味三拼,椒丝腐乳通菜,榴莲挞,泰式豆腐,芒果班戟","","1","",""
"10008808","合纵拉面","","辽宁","大连","dalian","19","中山区","美食","10","小吃快餐","g112","民意街1号(33中西侧)","天津街/人民路","18604081292,13841120375","每天 8: 00 -- 24: 00","16","3.0","http://i2.dpfile.com/pc/a6a6e78461ea2b33237eeaaf2908b760/45183724_m.jpg","","面馆,天津街/人民路,可送外卖","7","38.92496","121.64675","121.64675","38.92496","大连餐厅>>中山区>>天津街/人民路>>小吃快餐>>面馆>>合纵拉面","","","","","6.1","6.6","6.5","14","4","4","2","0","0","鳗鱼炒饭,猪骨髓拉面,原味骨汤面,笋尖酱油拉面","","0","￥9.9 - 价值16元！ 合纵拉面美食2选1;￥14.8 - 价值20元！ 合纵拉面猪骨髓拉面套餐;￥16.8 - 价值20元！ 合纵拉面鳗鱼炒饭套餐;￥29.8 - 价值42元！ 合纵拉面 双人套餐",""
"10008817","卡布蕾(1788广场店)","Cremebrulee Tea","上海","上海","shanghai","1","静安区","美食","10","面包甜点","g117","南京西路1818号1788广场美食街B1-10(近华山路)","静安寺","","","15","3.0","http://i3.dpfile.com/pc/ee5ea29ad89145f3ef43395e4fd78a5b/28089044_m.jpg","","饮品,静安寺","7","31.22204","121.44376","121.44376","31.22204","上海餐厅>>静安区>>静安寺>>面包甜点>>饮品>>卡布蕾(1788广场店)","","","","","6.7","7.1","7.1","21","3","6","7","1","1","南瓜布蕾,雪顶乌龙青,草莓星冰乐,皇家珍奶,奶茶,石榴绿茶,芒果优酪多","","1","",""
"10008823","北疆饭店","","浙江","嘉兴","jiaxing","102","秀洲区","美食","10","新疆菜","g3243","洪兴西路1766号江南摩尔东区2-3楼(近真妈妈)","江南摩尔","0573-82829299","每天 8: 00 -- 22: 00","64","3.0","http://i2.dpfile.com/pc/e63764e713f00d5095a4fe515fca47c1/31568080_m.jpg","","新疆菜,国际中港城,无线上网,可以刷卡","7","30.76349","120.71082","120.71082","30.76349","嘉兴餐厅>>秀洲区>>江南摩尔>>新疆菜>>北疆饭店","","","","","6.6","6.7","6.8","28","2","4","0","0","0","羊肉串,新疆拌面,中盘鸡,酸汤肥牛,新疆酸奶,肉夹馍,酸奶哈密瓜,大盘羊肉,新疆肉馕","","1","",""
"10008824","吴记锅仔牛肉面","","上海","上海","shanghai","1","静安区","美食","10","川菜","g102","南京西路1818号1788广场美食街B1-18(近华山路)","静安寺","021-62242287,62243052","","35","3.5","http://i3.dpfile.com/pc/c9e905f5f06a284bafd17e0987411b88/42461327_m.jpg","","面馆,静安寺,可以刷卡,无线上网","7","31.22338","121.44754","121.44754","31.22338","上海餐厅>>静安区>>静安寺>>川菜>>吴记锅仔牛肉面","","","","","7.2","7.4","7.4","59","10","13","19","8","3","半筋半肉面,麻辣肥牛锅,养生鸡汤锅,麻辣牛杂锅仔,紅燒牛筋麵,牛杂,鸡汤,东北酸菜锅,葱油饼,肥牛鍋仔","","0","￥39 - 价值72元！ 正宗台北吴记麻辣火锅超值1-2人锅仔套餐;￥72 - 价值119元！ 吴记锅仔牛肉面超值2-3人锅仔套餐",""
"10008853","西关会馆","","广东","广州","guangzhou","4","荔湾区","美食","10","粤菜","g103","龙津东路743号","中山七八路","020-81909088","每天 11:00 - 02:30","93","3.0","http://i3.dpfile.com/pc/587ea359f7f9669af67eec84c238bfbe/31519025_m.jpg","","粤菜,中山七八路","7","23.12243","113.24943","113.24943","23.12243","广州餐厅>>荔湾区>>中山七八路>>粤菜>>粤菜>>西关会馆","","","","","6.5","6.8","6.9","10","1","1","1","0","0","碌鹅,蟹肉炒蛋,鱼生,虾生","","0","",""
"10008863","塔顶泰国时尚餐厅(五玠坊店)","","上海","上海","shanghai","1","浦东新区","美食","10","东南亚菜","g115","东明路2100号万科2049五玠坊商街103-105室(近高青路地铁站)","三林地区","021-50677129","11:00-22:00","140","5.0","http://i3.dpfile.com/pc/b43862b780eda1501696bce068f680e3/30708926_m.jpg","","泰国菜,三林地区,可以刷卡,免费停车,有露天位,无线上网,情侣约会,朋友聚餐,休闲小憩,家庭聚会,随便吃吃,有景观位","7","31.15733","121.51573","121.51573","31.15733","上海餐厅>>浦东新区>>三林地区>>东南亚菜>>泰国菜>>塔顶泰国时尚餐厅(五玠坊店)","","","","","8.9","9.2","9.0","391","117","128","49","10","8","虾饼,猪颈肉,冬阴功,菠萝饭,咖喱老虎蟹,金牌虾饼,冬阴功汤,咖喱皇青蟹,椰汁西米露,金枪魚水果沙律,咖喱青蟹,椰蓉南瓜糕,春卷,青柠鳜鱼,招牌咖喱皇炒膏蟹,黄咖喱牛肉,四季豆,冬阴功虾面,泰式奶茶,九層塔炒鸡,奶油虾,咖喱蟹,老虎蟹,咖喱菌菇,生菜包肉","","1","￥169 - 价值200元！ 塔顶泰国时尚餐厅代金券",""
"10008868","韩国旋风土豆","","上海","上海","shanghai","1","闵行区","美食","10","小吃快餐","g112","江川路270号-4(近兰坪路)","老闵行","","","10","3.0","http://i1.dpfile.com/pc/12a3371c28fbcc1e42730a621b1b0ca5/28090353_m.jpg","","小吃,老闵行","7","31.00403","121.41829","121.41829","31.00403","上海餐厅>>闵行区>>老闵行>>小吃快餐>>小吃>>韩国旋风土豆","","","","","6.1","6.5","6.4","14","1","1","2","0","0","烤肉味旋风土豆,芝士味旋风土豆,炒年糕,旋风土豆,烤肉味的,菜单,门口,旋风地瓜","","0","",""
"10008901","仙芋世家(大拇指店)","","山东","青岛","qingdao","21","崂山区","美食","10","面包甜点","g117","崂山区同安路880号大拇指广场3楼(京焰云南菜对面)","石老人","0532-67786908","10:30-－22:00","20","4.0","http://i3.dpfile.com/pc/93a6f59ed2efad51a12e9558a48b5004/43931099_m.jpg","","甜品饮品,石老人,休闲小憩,免费停车,可以刷卡,随便吃吃","7","36.10913","120.44792","120.44792","36.10913","青岛餐厅>>崂山区>>石老人>>面包甜点>>甜品饮品>>仙芋世家(大拇指店)","","","","","8.0","8.1","8.1","45","12","20","7","2","0","招牌芋圆,招牌仙草,水果奶酪","","0","￥16.9 - 价值22元！ 仙芋世家甜品3选1;￥19.9 - 价值26元！ 仙芋世家甜点套餐4选1",""
"10008925","多素拌韩国料理(天山店)","","上海","上海","shanghai","1","长宁区","美食","10","韩国料理","g114","天山路900号汇金百货B1楼(近娄山关路)","天山","021-60908518","每天 10: 00 -- 22: 00","34","4.0","http://i2.dpfile.com/pc/61b9fc6f423dd819c459332350715b8f/43212538_m.jpg","","韩国料理,天山,可以刷卡,随便吃吃,休闲小憩,有午市套餐,朋友聚餐,情侣约会","7","31.21151","121.40514","121.40514","31.21151","上海餐厅>>长宁区>>天山>>韩国料理>>多素拌韩国料理(天山店)","","","","","8.3","8.2","8.6","196","62","49","50","8","4","牛肉石锅拌饭,金枪鱼色拉,拉面炒年糕,金枪鱼石锅拌饭,蟹肉蔬菜色拉,鱿鱼五花肉拌饭,辣鸡肉石锅拌饭,金橘柠檬茶,牛肉炒年糕,海鲜乌冬面,金枪鱼泡菜炒饭,烤鸡翅,香辣鸡肉石锅拌饭,拉面年糕,牛肉拌饭,炸鸡块色拉,泡菜汤,年糕拉面火锅,芒果汁,蔬菜石锅拌饭","","1","￥59 - 价值101元！ 多素拌韩国料理双人石锅拌饭套餐",""
"10008926","金手勺东北家常菜(龙旺庄店)","","北京","北京","beijing","2","通州区","美食","10","东北菜","g106","芙蓉东路耿庄桥北侧(近爱尚豆捞)","","010-58466999","","43","3.0","http://i3.dpfile.com/pc/d4d87d94ec3ef6231933a4668ab887cc/38448077_m.jpg","","东北菜","7","39.92599","116.68663","116.68663","39.92599","北京餐厅>>通州区>>东北菜>>金手勺东北家常菜(龙旺庄店)","","","","","6.2","6.4","6.3","8","1","2","0","0","0","红烧肘子","","1","",""
"10008934","嘉兴五芳斋(柳营路店)","","上海","上海","shanghai","1","闸北区","美食","10","小吃快餐","g112","柳营路777号(近共和新路)","闸北公园","","","15","3.0","http://i1.dpfile.com/pc/01ca00ae24445636f3b5de8fae48276c/45031371_m.jpg","","小吃,闸北公园","7","31.26357","121.45575","121.45575","31.26357","上海餐厅>>闸北区>>闸北公园>>小吃快餐>>小吃>>嘉兴五芳斋(柳营路店)","","","","","6.4","7.0","6.5","16","3","3","6","1","1","腐乳肉粽","","1","",""
"10008948","大梁骨头馆(万达广场店)","","辽宁","大连","dalian","19","甘井子区","美食","10","东北菜/家常菜","g106","高新园区黄浦路500号万达广场3楼","高新园区","0411-39983968","","60","3.5","http://i3.dpfile.com/pc/3bb3dc2995091c50db33869ab3c3573d/31766942_m.jpg","","东北菜/家常菜,高新园区,是老字号,无线上网,随便吃吃","7","38.95294","121.52549","121.52549","38.95294","大连餐厅>>甘井子区>>高新园区>>东北菜/家常菜>>大梁骨头馆(万达广场店)","","","","","7.3","7.8","7.4","63","1","15","16","6","7","大梁骨,煎偏口鱼饼子,大梁乱拌,全部,开背虾,炒大骨棒,没有,等菜","","1","",""
"10008969","北疆饭店","","江苏","宿迁","suqian","100","宿城区","美食","10","新疆菜","g3243","西湖路36号宝龙城市广场4楼","宝龙广场","0527-82995177","","53","2.0","http://i2.dpfile.com/pc/bb75500db23418693316b82b021cf821/39624907_m.jpg","","新疆菜,宝龙广场,可自带酒水,无线上网,商务宴请,是老字号","7","33.95186","118.29007","118.29007","33.95186","宿迁餐厅>>宿城区>>宝龙广场>>新疆菜>>北疆饭店","","","","","5.9","6.3","6.2","16","0","0","1","0","0","羊肉串,拔丝红薯,番茄牛腩","","0","",""
"10009008","Caffe Bene(江阴步行街店)","咖啡陪你","江苏","无锡","wuxi","13","人民中路步行街华联商厦对面","美食","10","咖啡厅","g132","人民中路步行街华联商厦对面","","0510-86894866,82734748","每天 09:00 - 22:30","32","0.0","http://i3.dpfile.com/pc/19eabc58f006e7267a091c850ba5f70e/33449294_m.jpg","","咖啡厅","7","31.81054","120.30615","120.30615","31.81054","无锡餐厅>>咖啡厅>>Caffe Bene(江阴步行街店)","","","","","","","","8","0","0","2","0","0","焦糖肉桂面包,奥趣黑白刨冰,冰激凌华夫,蒜香芝士面包,香芒福满刨冰,黑森林蛋糕,陪你香辣鸡球,火腿便餐,全莓刨冰,陪你猪排,蜂蜜果仁华夫,蜜桃汽水,芒果慕斯蛋糕","","1","",""
"10009020","太平洋咖啡(远东百货店)","Pacific Coffee","江苏","无锡","wuxi","13","崇安区","美食","10","咖啡厅","g132","中山路531号远东百货1楼(近总服务台)","胜利门","","","31","4.5","http://i2.dpfile.com/pc/9f8ae31faf4040556a1caa97bc394285/41208088_m.jpg","","咖啡厅,胜利门,无线上网,休闲小憩,可以刷卡,情侣约会,有下午茶,随便吃吃","7","31.58151","120.29855","120.29855","31.58151","无锡餐厅>>崇安区>>胜利门>>咖啡厅>>太平洋咖啡(远东百货店)","","","","","8.3","8.5","8.8","76","27","15","13","4","2","拿铁,国酒咖啡,百利拿铁曲奇冰沙,抹茶拿铁,焦糖拿铁,摩卡,蔓越莓可可,黑森林巧克力,摩卡咖玛素娜,蒸馏咖啡,香草拿铁","","1","￥176 - 价值200元！ 太平洋咖啡200元太卡充值卡",""
"10009059","诸暨次坞手工打面馆","","浙江","杭州","hangzhou","3","滨江区","美食","10","小吃快餐","g112","西兴镇青年路3-1号(近西陵社区)","","","","16","3.0","http://i1.dpfile.com/pc/ee4d4ca8d5d4a36ff5ce98d9aad4e2dc/28729722_m.jpg","","面馆","7","30.18827","120.2262","120.2262","30.18827","杭州餐厅>>滨江区>>小吃快餐>>面馆>>诸暨次坞手工打面馆","","","","","6.4","6.1","6.2","7","0","3","1","0","0","雪菜肉丝打面,炒面,大肠面","","0","",""
"10009187","江南驿(良渚店)","","浙江","杭州","hangzhou","3","余杭区","美食","10","杭帮/江浙菜","g101","余杭区良渚文化村玉鸟流苏街11号楼(知味观旁)","","0571-8874077,88774772","每天 11:05 - 21:00","68","3.5","http://i3.dpfile.com/pc/ec37f5c1b69f32d27cc3e5f2b091bafd/28455236_m.jpg","","杭帮菜,无线上网","7","30.36529","120.02155","120.02155","30.36529","杭州餐厅>>余杭区>>杭帮/江浙菜>>杭帮菜>>江南驿(良渚店)","","","免费停车","","6.9","7.6","7.1","39","7","10","2","5","7","麻椒鸡,孜然菠菜,墨鱼红烧肉,青瓜香蕉汁,百合芦笋","","1","",""
"10009232","聚贤堂农家乐","","北京","北京","beijing","2","昌平区","美食","10","北京菜","g311","十三陵长陵(近长岭镇)","","18911175225","24小时","77","0.0","http://i2.dpfile.com/pc/203aef9862437319428480fbe4900563/41970565_m.jpg","","农家菜,休闲小憩,供应早餐,朋友聚餐,免费停车,家庭聚会,无线上网","7","40.30953","116.25338","116.25338","40.30953","北京餐厅>>昌平区>>北京菜>>农家菜>>聚贤堂农家乐","","","","","","","","10","0","1","0","0","0","烤虹鳟鱼,烤羊腿,三文鱼,菜饼子,砂锅豆腐,烙饼 贴饼子,卫青萝卜,烙饼,烙饼 贴饼子 面,摊柴鸡蛋","","0","",""
"10009267","粋屋料理","紫荆浅草莱蒙分店","四川","成都","chengdu","8","武侯区","美食","10","日本料理","g224","二环路南四段51号莱蒙都会2栋2楼(近天虹百货)","红牌楼","028-61812444","11:00-22:00","93","4.5","http://i3.dpfile.com/pc/0f2856233215ac5fc057efc252893593/29671457_m.jpg","","日本料理,红牌楼,无线上网,情侣约会,朋友聚餐,休闲小憩,可以刷卡,有午市套餐,免费停车,随便吃吃","7","30.63153","104.03474","104.03474","30.63153","成都餐厅>>武侯区>>红牌楼>>日本料理>>粋屋料理","","","免费停车","","8.5","9.0","9.0","152","43","42","17","6","2","牛蒡手卷,刺身拼盘,土豆泥,手卷,蟹子沙拉,三文鱼刺身,铁板牛仔骨祘烧,土豆沙拉,鳗鱼炒饭,海鲜蒸蛋,锅烧乌冬面,综合刺身拼盘,辣白菜肥牛煮,味增汤,大份综合刺身,麦香牛舌,日式炸豆腐,刺身,茄汁秋刀鱼,野菜天妇罗,铁锅牛仔骨,海鲜炒乌冬,泡菜炒牛肉,烤鳗鱼,台式蛋包饭","","0","￥78 - 价值100元！ 粋屋料理代金券1张;￥168 - 价值308元！ 粋屋料理冬日暖心元气火锅双人餐;￥398 - 价值500元！ 粋屋料理储值卡1张",""
"10009288","曼诺莎","Manosa","浙江","杭州","hangzhou","3","余杭区","美食","10","面包甜点","g117","余杭区五常大道1号西溪印象城B101a(近西溪湿地)","","0571-85099266,15105713837","","16","3.5","http://i1.dpfile.com/pc/64f5862e84d2fda535c0ded3075629e7/43725576_m.jpg","","冰淇淋,无线上网,可以刷卡","7","30.24788","120.04749","120.04749","30.24788","杭州餐厅>>余杭区>>面包甜点>>冰淇淋>>曼诺莎","","","","","6.6","7.9","8.0","47","6","7","8","11","3","芒果味冰淇淋,巧克力味冰淇淋,奇异果味冰淇淋,奇异果冰淇淋,草莓冰淇淋","","0","￥5 - 价值15元！ 曼诺莎奶茶/果汁1杯;￥9.9 - 价值28元！ 曼诺莎冰淇淋1只;￥14.8 - 价值28元！ 曼诺莎冰激凌2选1;￥30 - 价值50元！ 曼诺莎代金券",""
"10009291","徐亮胖哥烤蹄(群光店)","","四川","成都","chengdu","8","锦江区","美食","10","烧烤","g508","春熙路群光广场B2楼","春熙路","","","10","3.5","http://i2.dpfile.com/pc/16b1202e22496642a70a5f71dcc80bef/30113884_m.jpg","","烧烤,春熙路,休闲小憩,随便吃吃","7","30.65433","104.07667","104.07667","30.65433","成都餐厅>>锦江区>>春熙路>>烧烤>>徐亮胖哥烤蹄(群光店)","","","","","7.3","7.3","7.0","56","4","17","16","7","2","烤猪蹄,烤蹄,烤鸡尖","","1","",""
"10009296","COCO(西溪印象城店)","都可茶饮","浙江","杭州","hangzhou","3","余杭区","美食","10","面包甜点","g117","余杭区五常大道1号西溪印象城B105(近西溪湿地)","","15700163659","","8","4.0","http://i3.dpfile.com/pc/084d8118c3529383e59ab19e09f03cb7/37561400_m.jpg","","甜品饮品","7","30.24764","120.04744","120.04744","30.24764","杭州餐厅>>余杭区>>面包甜点>>甜品饮品>>COCO(西溪印象城店)","","","","","8.2","8.2","8.3","51","23","9","4","1","1","奶茶三兄弟,珍珠奶绿,红豆奶茶,玫瑰盐奶盖绿,双拼奶茶,薄荷花茶,慕斯奶盖红茶,布丁奶茶","","1","","西米露奶茶免费升大杯"
"10009309","mumu teapresso(西溪印象城店)","","浙江","杭州","hangzhou","3","余杭区","美食","10","咖啡厅","g132","五常大道1号西溪印象城BM02(近西溪湿地)","西溪","18072702569","","12","3.5","http://i3.dpfile.com/pc/9241c5dde5c3005027f24591fc85ac27/38131094_m.jpg","","咖啡厅,西溪","7","30.24731","120.04727","120.04727","30.24731","杭州餐厅>>余杭区>>西溪>>咖啡厅>>mumu teapresso(西溪印象城店)","","","","","6.8","7.1","7.2","14","0","5","8","0","0","兵马俑奶缇,奶茶玛奇朵,水湾奶提","","1","",""
"10009315","鱼羊鲜老高头连锁全羊店 (万达广场店)","","辽宁","大连","dalian","19","甘井子区","美食","10","大连海鲜","g251","高新园区黄浦路500号万达广场3楼(近海事大学)","高新园区","0411-39021658","11:00 -- 21: 00","50","3.5","http://i3.dpfile.com/pc/376cc34631d996a5a0e1932370035d72/45043400_m.jpg","","大连海鲜,高新园区","7","38.95294","121.52549","121.52549","38.95294","大连餐厅>>甘井子区>>高新园区>>大连海鲜>>鱼羊鲜老高头连锁全羊店 (万达广场店)","","","","","6.7","7.3","7.3","32","5","3","7","6","3","黄金蛙,锅包肉,手撕菜,棒骨,压锅海鲈鱼,鱼锅,水晶虾饺","","1","￥75 - 价值100元！ 老高头私房渔家菜 代金券;￥59 - 价值114元！ 老高头私房渔家菜 双人套餐;￥148 - 价值262元！ 老高头私房渔家菜 4人套餐;￥69 - 价值100元！ 老高头私房渔家菜（万达广场店） 代金券",""
"10009340","洛林挞屋(印象城店)","","浙江","杭州","hangzhou","3","余杭区","美食","10","面包甜点","g117","余杭区五常大道1号西溪印象城BM18(近西溪湿地)","","0571-86135301","10;00-22;00","24","3.0","http://i1.dpfile.com/pc/c9764b886ffbb8f5c0cbd0724cf72947/41503866_m.jpg","","面包西点","7","30.24731","120.04727","120.04727","30.24731","杭州餐厅>>余杭区>>面包甜点>>面包西点>>洛林挞屋(印象城店)","","","","","6.7","6.9","6.9","11","2","4","3","1","0","抹茶香草泡芙,曲奇苹果布雷泡芙,雪芝士,苹果布蕾泡芙","","1","￥29.8 - 价值36元！ 粉色妈妈华夫饼4个装",""
"10009341","如果家西餐厅","如果家牛排披萨餐厅","四川","成都","chengdu","8","温江区","美食","10","西餐","g116","温江区柳浪湾北二街203-205号(近西南财经大学温江校区、食之有道、翘脚牛肉旁)","","4006760531","每天 10:00 - 24:00","29","0.0","http://i1.dpfile.com/pc/ce34072f5eecab0fde42a06398053372/43215420_m.jpg","","其他西餐,可送外卖,无线上网","7","30.68383","103.82715","103.82715","30.68383","成都餐厅>>温江区>>西餐>>其他西餐>>如果家西餐厅","","","","","","","","11","0","2","0","0","0","缤纷厚多士,红豆蛋挞,牛排,炒年糕,抹茶红豆冰,咖喱意面,鸡肉野菌焗饭,火腿披萨,榴莲批萨,蔬果沙拉","","0","￥39 - 价值68元！ 如果家西餐厅2人套餐",""
"10009363","爷茶(上海国际航运中心店)","","上海","上海","shanghai","1","虹口区","美食","10","其他","g118","杨树浦路18号(近东大名路)","平凉路","4001018368","每天 08:00 - 19:00","10","0.0","http://i1.dpfile.com/pc/02874d870df83cd58b7472fbdbc5394f/36755076_m.jpg","","茶馆,平凉路,有露天位,可送外卖,有下午茶","7","31.25014","121.51115","121.51115","31.25014","上海餐厅>>虹口区>>平凉路>>其他>>茶馆>>爷茶(上海国际航运中心店)","","","外送","","","","","12","0","1","0","0","0","紫苏乌梅,摩卡冰透乐,乳酸抹茶,拿铁咖啡,陈皮橘茶,红豆冰透乐,白桃乌龙茶奶,桑巴热情果奶昔,草莓奶昔冰透乐","","0","",""
"10009368","多兰汇美餐厅","","北京","北京","beijing","2","东城区","美食","10","川菜","g102","东直门南大街11号中汇广场C座3楼(东四十条西北侧)","朝阳门","010-56759300,56759311","上午10:30---14:00 下午17:00---21：30","87","3.5","http://i3.dpfile.com/pc/f5681455208e197d82b456c4394d47fc/32027543_m.jpg","","川菜,粤菜,朝阳门,东直门,免费停车","7","39.93489","116.43252","116.43252","39.93489","北京餐厅>>东城区>>朝阳门>>川菜>>川菜>>多兰汇美餐厅","","","","","6.7","7.4","7.2","14","4","5","5","0","0","烤猪肘配酸菜土豆泥,卤水蛋拼豆腐,海鲜小豆腐,有机菜花,小米辽参,火焰烤鸭,兰特伯爵绿茶蛋糕,炭烧武昌鱼,四宝,八宝鸭,鱼头","","0","￥9.9 - 价值100元！ 多兰汇美餐厅代金券1张",""
"10009372","鹿港之春(西溪印象城店)","","浙江","杭州","hangzhou","3","余杭区","美食","10","台湾菜","g107","五常大道1号西溪印象城L202C(近西溪湿地)","西溪","0571-89086059","","70","3.5","http://i1.dpfile.com/pc/1c89ccbe9938785f253d47512ddc2b94/31067076_m.jpg","","台湾菜,西溪,无线上网,有下午茶,情侣约会,朋友聚餐,休闲小憩,有露天位,免费停车","7","30.24731","120.04727","120.04727","30.24731","杭州餐厅>>余杭区>>西溪>>台湾菜>>鹿港之春(西溪印象城店)","","","","","7.1","7.7","7.7","55","5","10","13","5","7","三杯鸡,各种甜品,卤肉饭,腊肉炒饭,综合冰,泡菜粉丝,水煮牛肉,花生冰沙,三杯焗鲍菇,菜蒲蛋,菠萝油条虾,菜蛋铺,京葱干烧银鳕鱼煲,卤肉,金桔可乐,泡菜牛肉粉丝,钱江肉丝,综合冰小份,丝瓜蛤利,雪花绵绵冰,油条虾","","0","",""
"10009399","西旺港式茶餐厅(西溪印象城店)","","浙江","杭州","hangzhou","3","余杭区","美食","10","粤菜","g103","余杭区五常大道1号西溪印象城3楼(近西溪湿地)","","0571-88733728","","73","4.5","http://i3.dpfile.com/pc/aca17107e5571b83990b11c3cda8b9f2/31084121_m.jpg","","茶餐厅,可以刷卡,免费停车,朋友聚餐,情侣约会,有下午茶,有景观位,无线上网,休闲小憩,是老字号","7","30.24731","120.04733","120.04733","30.24731","杭州餐厅>>余杭区>>粤菜>>茶餐厅>>西旺港式茶餐厅(西溪印象城店)","","","免费停车,下午茶","","8.5","8.8","8.4","266","48","44","35","7","4","丝袜奶茶,招牌虾饺皇,菠萝包,经典烧味拼盘,三杯鸡,榴莲酥,肠粉,冰火菠萝包,艇仔粥,芝士焗云吞,经典拼盘,服务员,干炒牛河,三杯焗鲍菇,黄油包,招牌炒饭,鲈鱼,自家酸辣汤,咖喱虾,猪颈肉,金丝虾球,玄米什锦海鲜泡饭,口水鸡,生菜鱼片粥,黑松露牛肉丸","","1","￥85 - 价值100元！ 西旺港式茶餐厅代金券",""
"10009417","Yum Bistro","","河南","郑州","zhengzhou","160","金水区","美食","10","西餐","g116","人民路8号(八马茶业旁)","金水路/省政府","0371-69373260","10:30-24:00","66","4.0","http://i2.dpfile.com/pc/74dd7dde2aa11fb57f363b90a24326c7/41175700_m.jpg","","其他西餐,金水路/省政府,无线上网,朋友聚餐,情侣约会","7","34.76163","113.67964","113.67964","34.76163","郑州餐厅>>金水区>>金水路/省政府>>西餐>>其他西餐>>Yum Bistro","","","","","7.8","8.0","7.6","43","9","12","5","4","1","好像是牙买加辣堡,凯撒沙拉,芝士培根汉堡,牛肉玉米薄饼,夏威夷菠萝堡,牙买加辣堡,芝士薯条,tacos 辣！,土豆沙拉,提拉米苏奶昔,tacos,辣！","","0","",""
"10009434","萨莉亚(金谊广场店)","Saizeriya","上海","上海","shanghai","1","浦东新区","美食","10","西餐","g116","上南路4467号20号金谊广场4楼(近永泰路)","三林地区","","10：00-22：00","35","3.5","http://i3.dpfile.com/pc/b9ce97b108f79495300b96173bf7f904/32310200_m.jpg","","西式简餐,三林地区,休闲小憩,随便吃吃,有下午茶","7","31.14021","121.51378","121.51378","31.14021","上海餐厅>>浦东新区>>三林地区>>西餐>>西式简餐>>萨莉亚(金谊广场店)","","","","","7.4","7.3","7.0","71","8","19","28","4","5","奶油三文鱼意面,烤鸡翅,奶油蘑菇培根一面,鲜虾披萨,香烤鸡翅,烤玉米,蜗牛,培根披萨,芝士鸡排,香肠,芝士局土豆,蛤蜊面,水果披沙","","1","",""
"10009477","O'JAI PIZZA 欧佳披萨","","江苏","南京","nanjing","5","栖霞区","美食","10","西餐","g116","栖霞区文苑路东城汇2楼(近南师大)","","13512514509","9:30——21:00","18","3.5","http://i2.dpfile.com/pc/b3bf51e19b6a36ce904f3879ed91a71d/34083148_m.jpg","","比萨,休闲小憩,随便吃吃,可送外卖","7","32.09784","118.90988","118.90988","32.09784","南京餐厅>>栖霞区>>西餐>>比萨>>O'JAI PIZZA 欧佳披萨","","","外送","","7.2","6.9","7.6","20","2","8","2","0","0","牛肉披萨,夏威夷披萨,拿铁咖啡","","0","",""
"10009567","黑石礁夜市榴莲班戟","","辽宁","大连","dalian","19","沙河口区","美食","10","小吃快餐","g112","黑石礁小吃一条街","黑石礁","","","10","3.0","http://i2.dpfile.com/pc/acafd9d7b8b53fa957c65c5f3cf07d4d/45220171_m.jpg","","其他小吃,黑石礁","7","38.87506","121.55875","121.55875","38.87506","大连餐厅>>沙河口区>>黑石礁>>小吃快餐>>其他小吃>>黑石礁夜市榴莲班戟","","","","","7.0","6.1","6.6","11","5","2","1","1","0","榴莲班戟","","0","",""
"10009618","老盛昌苏州汤包馆(南翔店)","","上海","上海","shanghai","1","嘉定区","美食","10","小吃快餐","g112","南翔解放路银华商厦1楼(近民主街)","南翔","","每天 8: 00 -- 22: 00","13","3.5","http://i3.dpfile.com/pc/3bf7e421f9d85ef7043186b796d3b7c3/42369509_m.jpg","","小笼,南翔,休闲小憩,随便吃吃","7","31.29036","121.30893","121.30893","31.29036","上海餐厅>>嘉定区>>南翔>>小吃快餐>>小笼>>老盛昌苏州汤包馆(南翔店)","","","","","7.4","7.5","6.8","34","4","10","9","4","3","苏式汤包,闷肉面,苏州汤包,菜肉馄炖,牛肉粉丝汤,冷面,虾肉馄饨,排骨年糕,回锅肉盖浇饭,雪笋肉丝面,小馄饨,小笼包,面条","","1","",""
"10009720","达人麻辣香锅(汇金百货店)","","上海","上海","shanghai","1","长宁区","美食","10","川菜","g102","天山路900号汇金百货B1楼(娄山关路口)","天山","","10:00--22:00","46","3.5","http://i2.dpfile.com/pc/ab6c7f9a34ff186ba4118d089118a246/44432632_m.jpg","","川菜,天山","7","31.21133","121.4047","121.4047","31.21133","上海餐厅>>长宁区>>天山>>川菜>>达人麻辣香锅(汇金百货店)","","","","","7.2","7.1","7.6","93","7","27","18","7","12","土豆,鸡翅,花菜,牛肚,干锅牛蛙,芹菜,香锅,经典锅底,龙利鱼,孜然锅底,莴笋,咸香锅,腐竹","","1","￥72 - 价值100元！ 达人麻辣香锅代金券",""
"10009784","柴火老院子","","北京","北京","beijing","2","海淀区","美食","10","东北菜","g106","安宁庄东路小营桥西第一个十字路口北二百米路西(二炮，毛纺城)","清河","010-52669918,13120191180","","43","0.0","http://i2.dpfile.com/pc/68a4de9e7c5dea0c69dc331d94648286/35960548_m.jpg","","东北菜,清河","7","40.0485","116.32043","116.32043","40.0485","北京餐厅>>海淀区>>清河>>东北菜>>柴火老院子","","","","","","","","9","0","0","0","1","0","红烧鲤鱼,杀猪菜,煎粘豆包,小鸡炖蘑菇,盆盆拌菜,书记下酒菜","","0","",""
"10009823","江畔餐厅","Quay Restaurant","福建","厦门","xiamen","15","思明区","美食","10","西餐","g116","鹭江道16号(近中山路、轮渡码头，英迪格酒店)","中山路/轮渡","0592-2261666,4008840888","06：30-22：30","96","3.0","http://i2.dpfile.com/pc/e707222b1924e75aae6e0242f6fdbb54/40204216_m.jpg","","西餐,中山路/轮渡,可以刷卡,无线上网,有下午茶","7","24.45127","118.07736","118.07736","24.45127","厦门餐厅>>思明区>>中山路/轮渡>>西餐>>江畔餐厅","","","下午茶","","6.2","6.9","6.8","12","1","2","2","0","0","厦门沙茶面,肉骨茶,巧克力熔岩蛋糕,下午茶,红糟脆皮鸭配炸五","","0","￥78 - 价值113元！ 英迪格酒店 鼓浪海景下午茶套餐;￥70 - 价值101元！ 英迪格酒店 单人肉骨茶自助午餐;￥298 - 价值528元！ 英迪格酒店本地美食双人套餐;￥558 - 价值1230元！ 英迪格酒店本地美食4-6人套餐",""
"10009882","汪先生和岳小姐的蛋糕铺","","浙江","杭州","hangzhou","3","拱墅区","美食","10","面包甜点","g117","舟山东路(近宝丽眼镜)","拱宸桥/上塘","15924161766,15925694935","","10","3.0","http://i3.dpfile.com/pc/3e3c7be1862c7a3e75ae174320b5c790/34718735_m.jpg","","面包西点,拱宸桥/上塘","7","30.31852","120.15418","120.15418","30.31852","杭州餐厅>>拱墅区>>拱宸桥/上塘>>面包甜点>>面包西点>>汪先生和岳小姐的蛋糕铺","","","","","6.1","6.6","6.6","14","0","2","2","0","0","泡芙和北海道,浓郁小B,清新小A,芒果多多,榴莲飘飘,草莓亲亲,榴莲飘飘、","","0","",""
"10009938","临江鲜自助鱼火锅","","北京","北京","beijing","2","朝阳区","美食","10","火锅","g110","金台路乙21号稻香村2楼","大望路","010-85993061","11:00-14:00，17:00-22:00","42","3.5","http://i2.dpfile.com/pc/47a947d4d818048d5de7ce1ab1081e33/40314055_m.jpg","","鱼火锅,大望路,朋友聚餐,家庭聚会,情侣约会","7","39.91994","116.47778","116.47778","39.91994","北京餐厅>>朝阳区>>大望路>>火锅>>鱼火锅>>临江鲜自助鱼火锅","","","","","6.8","6.7","7.4","49","9","7","14","4","3","鲶鱼,煮熟了的鲶鱼,梭边鱼,土豆粉,百叶,白豆腐,魔芋丝,草鱼,野生鲶鱼，自助的,手打丸子,时蔬,大吃特吃~~,自助水果,鲢鱼,宽粉","","0","","会员专享8折"
"10010095","红川椒土菜馆","","上海","上海","shanghai","1","杨浦区","美食","10","粤菜","g103","国和路709号中原城市广场3座3楼(民庆路)","中原地区","021-55230597","","58","2.0","http://i3.dpfile.com/pc/6b0c7470c707579da31540c13fd0c2e9/30944402_m.jpg","","粤菜,中原地区","7","31.31609","121.52213","121.52213","31.31609","上海餐厅>>杨浦区>>中原地区>>粤菜>>红川椒土菜馆","","","","","5.8","6.3","5.7","10","1","1","4","0","3","外婆红烧肉,蒜蓉扇贝,蒸花蛤,水煮鲶鱼,红烧肉,松子鲈鱼,萝卜丝饼,酱萝卜，卤水拼盘,棒棒虾","","0","",""
"10010122","壹号厨房","","江苏","苏州","suzhou","6","吴中区","美食","10","川菜","g102","吴中大道1109号苏州生活广场4-110","长桥地区","13338658036","每天 9: 00 -- 22: 00","32","0.0","http://i1.dpfile.com/pc/d50320d888cb9291c04f93a0d81c17ae/44514174_m.jpg","","川菜,长桥地区","7","31.22188","120.59986","120.59986","31.22188","苏州餐厅>>吴中区>>长桥地区>>川菜>>壹号厨房","","","","","","","","18","0","1","0","1","0","酸菜鱼,干煸四季豆,烤鱼,土匪鸡","","0","￥49 - 价值76元！ 壹号厨房双人套餐;￥118 - 价值164元！ 壹号厨房4-6人套餐;￥279 - 价值399元！ 壹号厨房8-12人套餐",""
"10010126","家家乐精致快餐","","辽宁","沈阳","shenyang","18","东陵区","美食","10","小吃快餐","g112","富民南街(艺术家园东门)","浑南新区","024-31037811,31037911","早10:00-晚20:00提供外送服务","14","0.0","http://i2.dpfile.com/pc/f208bcefa499617ae167beb227544a81/36003895_m.jpg","","快餐简餐,浑南新区,可送外卖,随便吃吃","7","41.74512","123.47069","123.47069","41.74512","沈阳餐厅>>东陵区>>浑南新区>>小吃快餐>>快餐简餐>>家家乐精致快餐","","","","","","","","9","0","1","0","0","1","招牌鱼香肉丝,秘制鸡腿饭,台湾卤肉饭,焦熘肉段饭,酱茄子饭,招牌鱼香肉丝饭","","0","",""
"10010130","港点1996","","广东","深圳","shenzhen","7","南山区","美食","10","粤菜","g103","南山大道(近缪氏川菜)","前海","","","41","2.0","http://i2.dpfile.com/pc/91b671ee5fead780d72fe1d446132be4/37779454_m.jpg","","粤菜,前海","7","22.53019","113.92514","113.92514","22.53019","深圳餐厅>>南山区>>前海>>粤菜>>粤菜>>港点1996","","","","","5.6","6.0","5.7","24","0","2","0","2","0","牛肉炒饭,港式奶茶","","0","",""
"10010137","一面之缘","","上海","上海","shanghai","1","闸北区","美食","10","小吃快餐","g112","阳城路77号(近原平路)","大宁地区","13524909059","每天 7: 00 -- 22: 00","12","0.0","http://i3.dpfile.com/pc/99965d95cdf7d6d4e9e31bc97a3e6643/35746025_m.jpg","","面馆,大宁地区,可送外卖","7","31.2845","121.43043","121.43043","31.2845","上海餐厅>>闸北区>>大宁地区>>小吃快餐>>面馆>>一面之缘","","","","","","","","8","7","1","0","0","0","牛腩面,大肠肥而不腻","","0","",""
"10010170","九品金铜锣(南珠广场店)","","广东","广州","guangzhou","4","海珠区","美食","10","粤菜","g103","江燕路111号南珠广场南区2楼(近潮流仓)","工业大道","020-84122880","07:00——02:00","41","3.0","http://i1.dpfile.com/pc/e807d486348a0fff146836d057dc0311/37747713_m.jpg","","粤菜,工业大道,供应夜宵,家庭聚会","7","23.08184","113.27852","113.27852","23.08184","广州餐厅>>海珠区>>工业大道>>粤菜>>粤菜>>九品金铜锣(南珠广场店)","","","","","6.2","6.2","6.4","35","1","5","12","4","9","家乡特色芋饺,萝卜茸春卷,萝卜酥,红烧乳鸽,小榄粉果仔,xo酱炒萝卜糕,小笼包,豉油王鹅肠,蒸肉,茄子煲,特色南瓜饼,炸两肠,煎水库鱼,石窝腩汁猪肠粉,奶黄包,富贵银丝饼,煎焗鱼骨腩,话梅萝卜花,芋子饺,荔芋南瓜煲","","1","",""
"10010219","锦城印象竹海火锅(高新路店)","","陕西","西安","xian","17","高新区","美食","10","火锅","g110","枫林绿洲北门路北向西100米(近枫林绿洲小区)","高新路沿线","029-88896661,88896662","10:00-04:00","110","4.5","http://i3.dpfile.com/pc/4e0fc95f1e267edc18b82e4ce55b290c/29986856_m.jpg","","火锅,高新路沿线,可以刷卡,无线上网,免费停车,朋友聚餐,家庭聚会,休闲小憩,商务宴请,供应夜宵,情侣约会,随便吃吃","7","34.21771","108.89707","108.89707","34.21771","西安餐厅>>高新区>>高新路沿线>>火锅>>锦城印象竹海火锅(高新路店)","","","","","8.7","8.8","8.4","133","32","35","21","5","5","千层肚,鸳鸯锅底,秘制香油,黄喉,爽！,香油,三鲜鸳鸯,鸳鸯锅,炸豆皮,耗儿鱼,贡菜,圆生菜,莲藕,毛肚（可惜断货）,粉带,鳝鱼,虾丸,肥肠,土鳝鱼,咸稠汤底","","1","",""
"10010242","盟德西班牙餐厅","","浙江","宁波","ningbo","11","海曙区","美食","10","西餐","g116","日新街105号亿彩购物中心3楼3F-22号(近威斯汀酒店)","天一广场","0574-81859277","每天 9: 30 -- 22: 00","126","4.5","http://i2.dpfile.com/pc/20eb488a191d493ec75e953a84eff250/42162349_m.jpg","","其他西餐,天一广场,无线上网,可以刷卡,有景观位,有下午茶,商务宴请,朋友聚餐","7","29.86764","121.55632","121.55632","29.86764","宁波餐厅>>海曙区>>天一广场>>西餐>>其他西餐>>盟德西班牙餐厅","","","下午茶","","8.1","8.8","8.8","83","22","21","18","3","1","海鲜饭,提拉米苏,招牌色拉,土豆饼,黑松露菌奶油蘑菇,饭后西点,黑松露菌奶油蘑菇汤,意式肉酱面,奶油蘑菇培根面,紫薯蛋糕,餐前面包,蘑菇汤,盟德招牌色拉,西班牙特色海鲜饭,蒜辣橄榄油煎虾仁,意式海鲜面,三文鱼色拉,西班牙特色土豆饼,家乡汤,起司蛋糕,煎虾仁,鳕鱼","","0","￥198 - 价值520元！ 盟德西班牙餐厅特色套餐;￥298 - 价值788元！ 盟德西班牙餐厅经典套餐;￥58 - 价值108元！ 盟德西班牙餐厅精享套餐",""
"10010285","玲珑小镇","","浙江","宁波","ningbo","11","海曙区","美食","10","宁波江浙","g101","日新街105号亿彩购物中心3楼","天一广场","0574-81859273","10:30-21:00","78","4.0","http://i2.dpfile.com/pc/d415e068e87b8b580842af3bb9405e65/29163619_m.jpg","","江浙菜,天一广场,可以刷卡,无线上网,朋友聚餐,情侣约会,休闲小憩,随便吃吃,家庭聚会,有景观位,有下午茶","7","29.86826","121.55647","121.55647","29.86826","宁波餐厅>>海曙区>>天一广场>>宁波江浙>>江浙菜>>玲珑小镇","","","下午茶","","8.1","8.8","8.4","372","71","71","72","33","18","三杯鸡,功夫麻球,菠萝油条虾,大麻球,菠萝炒饭,醉虾,梅子小排,油淋鲈鱼,青柠蒸鱼,莲蓉包,梅子子排,姜汁核桃炖蛋,鲍汁芋仔,锡包骨仔,翡翠虾仁,酸汤肥牛,什锦水果刨冰,麻球,泰式咖喱虾,金丝虾,打卤面,小笼子排,苦瓜炒蛋,泰式酸辣蜜柚沙律,梅子小牌","","0","￥85 - 价值100元！ 玲珑小镇代金券1张;￥80 - 价值100元！ 玲珑小镇现金券1张",""
"10010312","九品金铜锣(前进路店)","","广东","广州","guangzhou","4","海珠区","美食","10","粤菜","g103","前进路148号反斗城2楼(近晓港公园正门)","江南大道","020-34494848","","47","3.0","http://i2.dpfile.com/pc/e467609e74ed31a60c7e086f28fb30c0/33719974_m.jpg","","粤菜,江南大道,滨江路,有下午茶","7","23.09928","113.28137","113.28137","23.09928","广州餐厅>>海珠区>>江南大道>>粤菜>>粤菜>>九品金铜锣(前进路店)","","","","","6.4","6.6","6.6","19","1","4","9","1","1","清远鸡,清蒸鲈鱼,脆皮大肠","","1","",""
"10010346","八道韩式小吃","","上海","上海","shanghai","1","长宁区","美食","10","韩国料理","g114","天山路900号汇金百货B1楼","天山","","","26","3.0","http://i2.dpfile.com/pc/799eac1a21c038e7bc435203586479ad/39485563_m.jpg","","韩国料理,天山","7","31.21151","121.40514","121.40514","31.21151","上海餐厅>>长宁区>>天山>>韩国料理>>八道韩式小吃","","","","","6.7","6.8","6.7","17","4","4","4","1","0","辣豆腐汤,泡菜汤,水果色拉,大酱汤","","0","",""
"10010378","食尚街美食天地","","上海","上海","shanghai","1","长宁区","美食","10","小吃快餐","g112","天山路900号汇金百货B1楼(近娄山关路)","天山","4000576776","10:00——22.00","25","3.0","http://i3.dpfile.com/pc/9183efa76653146e44721285abda9468/30556769_m.jpg","","小吃快餐,天山,随便吃吃","7","31.21151","121.40514","121.40514","31.21151","上海餐厅>>长宁区>>天山>>小吃快餐>>食尚街美食天地","","","","","6.5","6.8","6.7","18","4","4","7","0","1","鸡排","","0","",""
"10010453","秦镇米皮","","上海","上海","shanghai","1","浦东新区","美食","10","小吃快餐","g112","碧波路635号传奇广场1楼","张江","18501646328","","14","3.0","http://i3.dpfile.com/s/c/app/shop/i/shop/no-photo.2ee36d9fa3e22353370b4c54124d2e22.png","","小吃,莘庄","7","31.20048","121.58571","121.58571","31.20048","上海餐厅>>浦东新区>>张江>>小吃快餐>>秦镇米皮","","","","","6.0","6.4","6.5","9","0","2","2","0","0","米皮,肉夹馍","","0","",""
"10010493","上海大饭堂(东明店)","","上海","上海","shanghai","1","浦东新区","美食","10","本帮江浙菜","g101","东明路2100号五玠坊(近杨南路)","三林地区","021-68385177,68386977","","68","3.5","http://i3.dpfile.com/pc/58dfe34e24acc7c06871188b23f5fdeb/39902918_m.jpg","","本帮菜,三林地区,可以刷卡,免费停车,家庭聚会,朋友聚餐,随便吃吃,有露天位","7","31.15541","121.51808","121.51808","31.15541","上海餐厅>>浦东新区>>三林地区>>本帮江浙菜>>本帮菜>>上海大饭堂(东明店)","","","免费停车","","7.7","7.8","7.2","185","17","59","34","8","22","三十年代熏鱼,酸汤肥牛,红烧肉，牛蛙,外婆红烧肉,肉卤年糕,手撕包菜,湛江鸡,草头圈子,熏鱼,牛仔骨年糕,凉拌木耳,东北拉皮,烤麸,凉拌海蜇丝,海皇粉丝煲,三文鱼,清蒸鲥鱼,菜心香菇面筋煲,自制泡菜,毛蟹炒年糕,血糯米芒果,椰汁马拉糕,紫薯塔塔,香蕉椰汁西米露,葱油捞鸡","","1","",""
"10010574","思托故事咖啡馆","","贵州","贵阳","guiyang","258","白云区","美食","10","咖啡厅","g132","云峰大道帝景佳苑3栋11楼3号(近苏宁电器)","","0851-4285623","每天 11:00 - 24:00","20","0.0","http://i2.dpfile.com/pc/637a87eeddcb0188af964854c481f158/28173946_m.jpg","","咖啡厅","7","26.68245","106.63093","106.63093","26.68245","贵阳餐厅>>白云区>>咖啡厅>>思托故事咖啡馆","","","","","","","","5","4","1","0","0","0","冰酿咖啡,薄荷柠檬冰爽茶,焦糖玛琪朵,鲜果酸奶,拿铁套餐","","0","",""
"10010680","潇湘味庄","","北京","北京","beijing","2","昌平区","美食","10","湘菜","g104","南口镇南大街21号(近工商管理专修学院)","昌平镇","010-57200880","10:00-22:00","57","0.0","http://i3.dpfile.com/pc/491e60d5565e8301a4ac999668f62b8e/32310587_m.jpg","","湘菜,昌平镇,无线上网,免费停车,可送外卖","7","40.23454","116.12447","116.12447","40.23454","北京餐厅>>昌平区>>昌平镇>>湘菜>>潇湘味庄","","","","","","","","7","0","1","1","0","0","小炒猪肝,大块腊肉,擂辣椒,玉米汁,木瓜冻奶,干锅牛蛙","","0","",""
"10010719","百家味道(仲盛店)","","上海","上海","shanghai","1","闵行区","美食","10","粤菜","g103","都市路5001号仲盛世界商城4楼15A","莘庄","021-64600668","10：00-22：00","80","4.0","http://i2.dpfile.com/pc/84e6a657477252c94869b4d204088169/45099394_m.jpg","","粤菜,莘庄,可以刷卡,无线上网,有下午茶,家庭聚会,朋友聚餐,随便吃吃,情侣约会,商务宴请,休闲小憩,有露天位","7","31.10717","121.38731","121.38731","31.10717","上海餐厅>>闵行区>>莘庄>>粤菜>>粤菜>>百家味道(仲盛店)","","","下午茶","","8.0","8.3","8.2","316","62","92","71","16","22","百家虾饺皇,招牌脆皮乳鸽,鲜奶红豆糕,乳鸽,黑松露鲜虾粉丝煲,热奶茶,榴莲雪球,豉汁带子豆腐,虾饺,杨枝甘露,沙姜石板烧多宝鱼,客家梅菜扣肉,台式脆鸡卷,养身香烧萝卜,韭香虾肉肠粉,菠萝海鲜饭,焗虾,叉烧,香辣咖喱海虾,脆皮锅贴小棠菜,健康蔬菜色拉,养生香烧萝卜,乳猪拼盘,黑椒烧汁包,一品鸭酥","","1","￥85 - 价值100元！ 百家味道(仲盛店)代金券1张",""
"10010721","Dolce","道乐斯","上海","上海","shanghai","1","长宁区","美食","10","西餐","g116","紫云西路66号(近娄山关路)","虹桥","021-62338177","11:00—02:00","74","3.5","http://i3.dpfile.com/pc/ee8e38182c41ceb28227f2dd44b1a10d/44585006_m.jpg","","西式简餐,酒吧,虹桥,无线上网,可以刷卡,免费停车","7","31.20738","121.40367","121.40367","31.20738","上海餐厅>>长宁区>>虹桥>>西餐>>西式简餐>>Dolce","","","","","6.9","7.5","7.3","23","3","6","10","0","0","炸鸡","","0","￥48 - 价值94元！ Dolce下午茶套餐;￥150 - 价值450元！ Dolce",""
"10010764","米四糖五","","江苏","南京","nanjing","5","雨花台区","美食","10","其他","g118","雨花台区江泉路21号(韩府坊公交站旁)","","","每天 11: 00 -- 22: 30","21","3.0","http://i3.dpfile.com/pc/99d98e8777edd2c1b0b4626891e686f6/29090246_m.jpg","","咖啡厅,有下午茶,无线上网,休闲小憩,朋友聚餐,情侣约会","7","31.96375","118.74969","118.74969","31.96375","南京餐厅>>雨花台区>>其他>>咖啡厅>>米四糖五","","","","","6.1","6.6","6.8","10","2","0","0","1","0","培根三明治,香蕉优格,冰拿铁,批萨,维也纳咖啡,冰美式,意面,薯条会咬人,拿铁","","1","",""
"10010819","好厨舌尚餐厅","","江苏","南京","nanjing","5","玄武区","美食","10","南京/江浙菜","g101","薛家巷8号曦和商业广场3楼(近丹凤街大润发)","珠江路沿线","025-86895777,83357979","每天 10:00 - 22:00","124","3.5","http://i2.dpfile.com/pc/38baf33e5b4a5a3fae30eb9ed540920d/44513122_m.jpg","","淮扬菜,粤菜,珠江路沿线,无线上网,可以刷卡","7","32.05449","118.78473","118.78473","32.05449","南京餐厅>>玄武区>>珠江路沿线>>南京/江浙菜>>淮扬菜>>好厨舌尚餐厅","","","","","7.1","7.5","7.0","29","4","5","5","3","5","生蚝,波士顿龙虾,虾婆","","0","￥698 - 价值1226元！ 好厨舌尚餐厅10人豪华套餐;￥186 - 价值390元！ 好厨舌尚餐厅4人超值套餐","会员专享9.5折"
"10010881","巫山烤全鱼","","黑龙江","佳木斯","jiamusi","86","向阳区","美食","10","川菜","g102","永安街大自然对面(长城饭店对面)","前进区","0454-8695556","","48","2.0","http://i2.dpfile.com/pc/f14a328120ff3874c0dbd564489ee81c/37279180_m.jpg","","川菜","7","46.81506","130.36774","130.36774","46.81506","佳木斯餐厅>>向阳区>>前进区>>川菜>>巫山烤全鱼","","","","","5.9","6.3","6.2","7","0","1","0","0","0","金银小馒头,香辣牛蛙,烤虾,2.4斤三道鳞香,烤鱼","","0","",""
"10010910","星巴克(乐颂坊店)","STARBUCKS COFFEE","上海","上海","shanghai","1","松江区","美食","10","其他","g118","松汇中路568号B座(近平高百货)","松江镇","021-37017545","","31","3.0","http://i3.dpfile.com/pc/3bc956e6c6710cb85f833fecdcb0604c/43653356_m.jpg","","星巴克,西式甜点,松江镇,有露天位,无线上网","7","31.00448","121.2344","121.2344","31.00448","上海餐厅>>松江区>>松江镇>>其他>>咖啡厅>>星巴克>>星巴克(乐颂坊店)","","","","","6.7","7.1","6.7","16","1","7","6","0","1","摩卡星冰乐,焦糖玛琪朵,草莓拿破仑,image","","1","",""
"10011027","曼越香越南菜馆(七彩店)","","云南","昆明","kunming","267","盘龙区","美食","10","其他","g118","白塔路七彩ME TOWN购物中心负一层-14/16/17/18","白龙寺","0871-63380999","每天","97","3.0","http://i1.dpfile.com/pc/8484ca9dbf2d671abd771386cd21441c/40324593_m.jpg","","东南亚菜,白龙寺,无线上网,可以刷卡,休闲小憩,情侣约会,家庭聚会,朋友聚餐,商务宴请,有景观位,免费停车,有露天位","7","","","","","昆明餐厅>>盘龙区>>白龙寺>>其他>>东南亚菜>>曼越香越南菜馆(七彩店)","","","","","6.7","6.9","6.5","27","1","6","4","3","0","香草酸汤锅,328元的大拼盘,越南小卷粉,文昌鸡,兰香子香草冰露,越南春卷,番石榴冰露,金桔冰露,越南小卷发,越南小吃拼盘,三色面,芒果冰露,薄荷冰露,舂小鱿鱼","","0","",""
"10011068","六婆串串香火锅","","陕西","咸阳","xianyang","292","秦都区","美食","10","火锅","g110","世纪大道(近秦阳花园小区东门，大堡子路，后围寨下地铁，21路到大堡子村十子往北100米路东)","","029-33663976","每天 09:50 - 00:00","34","2.0","http://i1.dpfile.com/pc/15df68033f346ee1e955dd2bca2723b2/29120640_m.jpg","","火锅,休闲小憩,无线上网,家庭聚会,情侣约会,朋友聚餐","7","34.31655","108.71878","108.71878","34.31655","咸阳餐厅>>秦都区>>火锅>>六婆串串香火锅","","","","","5.9","6.3","6.2","14","0","0","1","1","0","麻辣牛肉,霸王牛肉","","0","",""
"10011099","阿姨布丁","","天津","天津","tianjin","10","红桥区","美食","10","面包甜点","g117","西北角地铁C口","芥园道","13388023023","西北角地铁C口4点?7点，西南角地铁D2口5点?7点","15","3.0","http://i3.dpfile.com/pc/4026134216097f1d1340fac1e5d63b1e/43846592_m.jpg","","甜品饮品,芥园道","7","39.14662","117.17162","117.17162","39.14662","天津餐厅>>红桥区>>芥园道>>面包甜点>>甜品饮品>>阿姨布丁","","","","","6.9","6.5","6.8","12","3","2","4","1","0","奶酪布丁,抹茶布丁,原味布丁,提拉米苏,巧克力布丁,糯米糍","","0","￥36 - 价值40元！ 阿姨布丁奶酪代金券",""
"10011128","潮火锅(回龙湾店)","","重庆","重庆","chongqing","9","南岸区","美食","10","火锅","g110","回龙湾兰湖天对面(工商大学旁)","回龙湾","023-62750435,61252731","10：00-22：00","36","4.0","http://i1.dpfile.com/pc/70647bf7cedfbf5e0cde6abdbbc17d45/28173705_m.jpg","","火锅,回龙湾,无线上网,朋友聚餐,家庭聚会,随便吃吃,有生日优惠,供应夜宵,有表演,可自带酒水","7","29.50543","106.57031","106.57031","29.50543","重庆餐厅>>南岸区>>回龙湾>>火锅>>火锅>>潮火锅(回龙湾店)","","","","","7.5","8.0","8.3","30","12","5","0","1","0","鸭肠,肥牛,梅林午餐肉,嫩肉片,老肉片,毛肚","","1","",""
"10011142","有家酸菜鱼(吴中店)","","江苏","苏州","suzhou","6","吴中区","美食","10","川菜","g102","宝带东路310号(丽丰广场斜对面)","长桥地区","0512-66057803","","53","3.5","http://i3.dpfile.com/pc/aae6b1647983f37cd68eb41a6a7fbc93/43516274_m.jpg","","川菜,长桥地区,家庭聚会,无线上网,朋友聚餐,休闲小憩,免费停车","7","31.26791","120.63498","120.63498","31.26791","苏州餐厅>>吴中区>>长桥地区>>川菜>>有家酸菜鱼(吴中店)","","","","","7.7","7.0","7.1","41","9","8","5","2","5","酸菜鱼","","1","",""
"10011196","锅锅食府","","北京","北京","beijing","2","石景山区","美食","10","火锅","g110","苹果园南路(近物美大卖场)","苹果园","010-88701973","10:30-21:30","33","3.0","http://i3.dpfile.com/pc/b225dd3a9e0082d454b1d478fbd1d5f1/30830567_m.jpg","","羊蝎子,苹果园","7","39.93296","116.2019","116.2019","39.93296","北京餐厅>>石景山区>>苹果园>>火锅>>羊蝎子>>锅锅食府","","","","","6.1","6.2","6.3","13","1","1","2","0","0","石锅鱼","","0","",""
"10011249","逸和茶楼","","北京","北京","beijing","2","海淀区","美食","10","其他","g118","清河桥西强佑新城4号楼3层(北京京北医药路西)","清河","010-53631535","9：00---1：00","37","0.0","http://i1.dpfile.com/pc/f8d5e9a335198ce3dc01142d579e9913/43156473_m.jpg","","茶馆,清河,有下午茶,无线上网,供应早餐,休闲小憩,供应夜宵,可送外卖,情侣约会,有露天位,是老字号","7","40.02929","116.34848","116.34848","40.02929","北京餐厅>>海淀区>>清河>>其他>>茶馆>>逸和茶楼","","","免费停车","","","","","12","1","0","0","0","0","麻将机,中国菜,速冻水饺","","0","",""
"10011260","重庆打望火锅","","安徽","合肥","hefei","110","政务区","美食","10","火锅","g110","南二环路3818号天鹅湖万达广场金街步行街3楼","","0551-63755577","10:30 - 21:00","54","3.0","http://i2.dpfile.com/pc/8c8ca6756822a4c5a1195aa49af84a9e/29491627_m.jpg","","火锅,无线上网,朋友聚餐,可以刷卡,有景观位,家庭聚会","7","31.81833","117.2216","117.2216","31.81833","合肥餐厅>>政务区>>火锅>>重庆打望火锅","","","","","6.4","6.8","6.8","12","0","3","0","0","0","猪肝,鮰鱼翅,鱼豆腐,茶水,鸭肠,毛肚","","0","",""
"10011294","Caffe Bene(北仑店)","咖啡陪你","浙江","宁波","ningbo","11","北仑区","美食","10","咖啡厅","g132","新大路881号(近岷山路)","新大路沿线","","","38","0.0","http://i3.dpfile.com/pc/d225999e5c3039d4c9a068fee5fe265a/40937255_m.jpg","","咖啡厅,新大路沿线","7","29.90063","121.82381","121.82381","29.90063","宁波餐厅>>北仑区>>新大路沿线>>咖啡厅>>Caffe Bene(北仑店)","","","","","","","","11","0","0","2","0","0","卡布奇诺,蔓越莓乳酪蛋糕,咖啡刨冰。,咖啡刨冰,热红酒,培根土司,酸奶华夫,冰美式","","1","￥32 - 价值50元！ Caffe Bene(北仑店)现金券",""
"10011308","赖大妈锅烧面馆","","上海","上海","shanghai","1","宝山区","美食","10","小吃快餐","g112","菊太路1165号(近宝菊路)","顾村公园","18721773159","每天 07:00 - 21:30","15","0.0","http://i3.dpfile.com/pc/ba8e3d7b69d8b497a4bfef8dc696a1ee/28133711_m.jpg","","面馆,顾村公园","7","31.34819","121.35844","121.35844","31.34819","上海餐厅>>宝山区>>顾村公园>>小吃快餐>>面馆>>赖大妈锅烧面馆","","","","","","","","8","0","1","0","0","0","秘制牛腩锅烧面,红烧小排饭","","0","",""
"10011309","时尚粗粮(万达广场店)","","辽宁","大连","dalian","19","甘井子区","美食","10","东北菜/家常菜","g106","高新园区黄浦路500号万达广场","高新园区","0411-39983977","每天 8: 00 -- 21: 00","49","3.5","http://i3.dpfile.com/pc/e23a0ab5e46bb7036b1fec4adc0ee84a/45092675_m.jpg","","东北菜/家常菜,高新园区,可以刷卡,朋友聚餐","7","38.8623","121.5322","121.5322","38.8623","大连餐厅>>甘井子区>>高新园区>>东北菜/家常菜>>时尚粗粮(万达广场店)","","","","","7.1","7.5","7.3","39","1","11","8","4","2","锅包肉,东北大炖菜,紫薯汁,土豆,茶树菇,拆骨肉地三鲜,大烩莱,黄金饼,咸鱼茄子煲,三鲜小土豆,牛肉金丝面,三鲜焖子,珍菌猪颈肉","","1","",""
"10011314","山茶云南菜","","北京","北京","beijing","2","海淀区","美食","10","火锅","g110","中关村保福寺78号(中科院计算机研究所对面)","中关村","010-62612395","10:30~22:00","47","4.0","http://i2.dpfile.com/pc/4bfc77f2605604ca957051d998623552/40127212_m.jpg","","其他火锅,云南菜,中关村,双榆树,朋友聚餐,休闲小憩,可以刷卡,随便吃吃,无线上网,情侣约会,家庭聚会","7","39.98205","116.32758","116.32758","39.98205","北京餐厅>>海淀区>>中关村>>火锅>>其他火锅>>山茶云南菜","","","","","8.1","8.1","8.1","74","20","27","8","2","1","罗非鱼,纳西老奶洋芋,茉莉花香鸡蛋,薄荷牛肉,黑三剁,小锅米线,香茅草捆鱼,菠萝饭,茉莉花炒鸡蛋,蛋花肥牛,老奶洋芋,糯香排骨,紫米酒,清炒丝瓜尖,松阪肉,瓦片烤肉,黑三剁炒饭,腾冲大救驾,炒乳扇,香辣炒云腿","","0","","会员专享9.5折"
"10011344","涵睿永泰酒家","","天津","天津","tianjin","10","河东区","美食","10","天津菜","g497","月牙河南路(近融科金月湾)","中山门","","","32","0.0","http://i3.dpfile.com/pc/290ef6387ac4cb252744e93fe24c8c4a/29047613_m.jpg","","天津菜,中山门,朋友聚餐,休闲小憩,随便吃吃,可送外卖,家庭聚会,可自带酒水","7","39.09115","117.27217","117.27217","39.09115","天津餐厅>>河东区>>中山门>>天津菜>>涵睿永泰酒家","","","","","","","","11","0","1","0","0","0","铁锅鲶鱼,熏排骨,干煸鱿鱼须,熏脊骨,鸭翅","","0","￥78 - 价值100元！ 涵睿永泰酒家代金券",""
"10011402","鱼大锅","","吉林","长春","changchun","70","朝阳区","美食","10","东北菜","g106","康平街(近三角广场)","建设街","0431-81709055","9:00-22:00","40","0.0","http://i3.dpfile.com/s/c/app/shop/i/shop/no-photo.2ee36d9fa3e22353370b4c54124d2e22.png","","农家菜,建设街,有露天位","7","43.89178","125.31108","125.31108","43.89178","长春餐厅>>朝阳区>>建设街>>东北菜>>农家菜>>鱼大锅","","","","","","","","5","1","0","0","0","0","草原小羔羊锅,铁锅炖鱼,水豆腐,铁锅土公鸡,自制水豆腐,石磨黑豆腐","","0","",""
"10011447","仙雨林(干将东路店)","","江苏","苏州","suzhou","6","平江区","美食","10","面包甜点","g117","干将东路811号(鲜芋仙东侧20米，荣泰文化西侧20米)","观前街地区","13776004771,13862031891","10:00-20:00","7","4.0","http://i3.dpfile.com/pc/e1e66274f97dab02292dc1302fcec08d/33252509_m.jpg","","甜品饮料,观前街地区,随便吃吃,有下午茶,可送外卖","7","31.30693","120.627","120.627","31.30693","苏州餐厅>>平江区>>观前街地区>>面包甜点>>甜品饮料>>仙雨林(干将东路店)","","","","","7.8","7.8","7.9","26","11","6","2","2","1","珍珠奶露冰,慕斯可可,慕斯奶茶珍珠奶茶,柠檬椰果益菌多,优格布丁,金橘柠檬,冰淇淋,椰果奶茶,卡布吉诺沙冰,芒果沙冰","","0","",""
"10011468","The Strand Beer Cafe","斯特兰德啤酒咖啡屋","广东","广州","guangzhou","4","越秀区","美食","10","其他","g118","寺右新马路南三街三巷6号1楼03铺(近越秀区东山实验小学)","五羊新城","020-87357179","18：00--02：00","50","3.0","http://i1.dpfile.com/pc/0b85be0c41005e096828c3a9595c1de0/29293527_m.jpg","","酒吧,五羊新城,无线上网,休闲小憩,朋友聚餐,随便吃吃,情侣约会,供应夜宵,有下午茶,家庭聚会,有无烟区,有露天位","7","23.11701","113.31356","113.31356","23.11701","广州餐厅>>越秀区>>五羊新城>>其他>>酒吧>>The Strand Beer Cafe","","","","","6.5","6.8","6.8","27","2","1","0","0","0","各种口味家酿啤酒,披萨！,各种口味自酿啤酒,原味布丁,Tiramisu,洛基山淡啤,精品黑咖啡,汉堡,咖啡布丁,皮萨","","0","",""
"10011490","富禾味中天(四川北路店)","","上海","上海","shanghai","1","虹口区","美食","10","本帮江浙菜","g101","四川北路1941号3-4楼(近多伦路)","四川北路","021-60738006,60738007","","65","4.0","http://i1.dpfile.com/pc/0c2fa512b5f55a9f7b8f2f3fc4f0f478/37882509_m.jpg","","本帮菜,四川北路,可以刷卡,免费停车,家庭聚会,休闲小憩,商务宴请,朋友聚餐,随便吃吃,无线上网,有生日优惠,可办大型宴会","7","31.2626","121.48372","121.48372","31.2626","上海餐厅>>虹口区>>四川北路>>本帮江浙菜>>本帮菜>>富禾味中天(四川北路店)","","","","","8.1","8.3","8.2","127","43","35","21","11","6","酸汤肥牛,干锅有机花菜,熏鱼,多宝鱼,橄榄油拌蓬蒿菜,酒酿圆子,糯米蒸香肉,密制花雕蒸小时鱼,椰汁红豆糕,葱油饼,蔬菜色拉,新加坡牛仔骨,笋壳鱼,重庆毛血旺,蒙古烤羊排,清蒸鲥鱼,鲜薄荷炒芸豆,萝卜酥,可以尝尝的紫薯,上海炒面,葱姜炒花蛤,原味老醋海蛰头,清蒸鲈鱼,富贵花开茄子,中鲍鱼","","1","￥898 - 价值1725元！ 富禾味中天10人美食套餐;￥1288 - 价值2552元！ 富禾味中天10人套餐",""
"10011506","习面居","","江苏","南京","nanjing","5","玄武区","美食","10","小吃快餐","g112","北京东路40号(近外国语学校)","珠江路沿线","15705180646","","15","3.0","http://i2.dpfile.com/pc/7982dd15ea53222b77a9283dc4fd33e1/28137796_m.jpg","","面馆,珠江路沿线","7","32.05702","118.80618","118.80618","32.05702","南京餐厅>>玄武区>>珠江路沿线>>小吃快餐>>面馆>>习面居","","","","","5.9","6.3","6.3","11","0","2","2","0","0","麻辣肉丁盖浇饭,双菇面筋面,三鲜面疙瘩,炒饭","","0","",""
"10011528","阳光雨露自助烤肉(万达广场店)","","辽宁","大连","dalian","19","甘井子区","美食","10","自助餐","g111","高新园区黄浦路500号万达广场3楼(近海事大学)","高新园区","0411-39073655","","65","4.0","http://i2.dpfile.com/pc/a9a8f285dc6b73e539a21ecbcc1de7c1/32850973_m.jpg","","自助餐,高新园区,朋友聚餐,可以刷卡,免费停车,家庭聚会,随便吃吃,有生日优惠,情侣约会,无线上网","7","38.86107","121.53334","121.53334","38.86107","大连餐厅>>甘井子区>>高新园区>>自助餐>>阳光雨露自助烤肉(万达广场店)","","","","","7.8","7.9","8.0","180","15","23","27","5","3","蜜汁梅肉,蛋挞,慕斯蛋糕,大虾,五花肉,鸡脆骨,牛舌,肥牛,鸡胗,培根,西冷牛肉,北极虾,梅肉,酸奶慕斯,蛋糕,羊排,烤酸菜,奥尔良烤鸡脖,腰子,鸡心,寿司,调料,牛宝,孜然羊肉,披萨","","1","",""
"10011546","老友记黄焖鸡米饭","","天津","天津","tianjin","10","河东区","美食","10","小吃快餐","g112","津滨大道53号河东万达广场室外步行街1077号","上杭路街","022-58058222","每天 11: 00 -- 21: 30","19","4.0","http://i2.dpfile.com/pc/b99d8797e72a1b36f94ee4e9082c96d4/28315564_m.jpg","","小吃快餐,上杭路街","7","39.12485","117.25274","117.25274","39.12485","天津餐厅>>河东区>>上杭路街>>小吃快餐>>老友记黄焖鸡米饭","","","","","7.8","7.8","7.7","30","9","8","8","0","0","黄焖鸡米饭","","1","",""
"10011627","老妈味当家","","黑龙江","哈尔滨","haerbin","79","香坊区","美食","10","东北菜","g106","司徒街77号(三辅街口)","菜艺街","0451-53606555,55651777","每天 9: 00 -- 24: 00","31","0.0","http://i3.dpfile.com/pc/b98918ac42d9d50c7faa5b63c97ec082/37747073_m.jpg","","东北菜/家常菜,菜艺街","7","45.73195","126.67939","126.67939","45.73195","哈尔滨餐厅>>香坊区>>菜艺街>>东北菜>>东北菜/家常菜>>老妈味当家","","","","","","","","16","4","1","0","0","1","滑肉,小豆腐,6元的勇闯天涯","","0","",""
"10011781","25楼城墙下餐馆(大明宫店)","","陕西","西安","xian","17","未央区","美食","10","陕菜/家常菜","g786","太华路与自强东路交会处西北角大明宫遗址公园内(近白桦林明天)","太华路沿线","029-86695566","夏季：11:00—凌晨1:00冬季：11:00—23:00","80","0.0","http://i1.dpfile.com/pc/093290900902f46b24c9e26e0a3ee9ae/31795458_m.jpg","一出电梯，一位“上了年纪的大叔”随即迎上，“很是热情”。来他家，自然要去“露台”用餐——坐在“25层的顶楼”，西安南郊附近的景色“一览无余”，“甚是惬意”。出品挺丰富，夏天可吃“烧烤”，冬天可要“打边炉”，另有小炒供应；只是分量偏少，“经不起男生的饿虎吞羊”。服务“还不错”，天冷时会把菜用蜡烛煨着，不担心吃两口就凉了。","陕菜/家常菜,太华路沿线","7","34.28179","108.97063","108.97063","34.28179","西安餐厅>>未央区>>太华路沿线>>陕菜/家常菜>>25楼城墙下餐馆(大明宫店)","","","","","","","","9","0","1","0","0","1","菠萝油条虾,三娃鸡","","1","",""
"10011786","摩休敦纳韩国年糕料理(上海总店)","????","上海","上海","shanghai","1","普陀区","美食","10","韩国料理","g114","长寿路401号亚新生活广场1楼(近新会路)","同乐坊","021-60492234","10:00--22:00","48","4.0","http://i3.dpfile.com/pc/3efa117a6914ff1dbc2155246f5a8c2f/33795632_m.jpg","","韩国料理,同乐坊,有露天位,可以刷卡,朋友聚餐,休闲小憩,情侣约会,随便吃吃,有景观位","7","31.23928","121.43727","121.43727","31.23928","上海餐厅>>普陀区>>同乐坊>>韩国料理>>摩休敦纳韩国年糕料理(上海总店)","","","","","7.7","8.2","8.1","120","19","34","34","13","7","拉面,芝士年糕,烤肉年糕,烤肉加奶酪年糕锅,部队年糕,鱼饼,劲面,牛肉盖浇饭,烤肉,海鲜年糕","","1","￥39.8 - 价值50元！ 摩休敦纳韩国年糕料理 代金券",""
"10011800","台北吴记老锅底麻辣火锅(思北店)","","福建","厦门","xiamen","15","思明区","美食","10","火锅","g110","厦禾路323号之十二至十三店面(厦门六中、眼科医院)","禾祥西路","0592-2285389","10:00-24:00","64","2.0","http://i2.dpfile.com/pc/35fcdef2fd4e76e4243df4b333597203/32440585_m.jpg","","火锅,禾祥西路,无线上网","7","24.46105","118.083","118.083","24.46105","厦门餐厅>>思明区>>禾祥西路>>火锅>>台北吴记老锅底麻辣火锅(思北店)","","","","","5.6","6.2","6.3","15","0","2","1","0","0","鸳鸯锅底,福袋,牛杂,鸭血,菌菇拼盘","","1","￥148 - 价值214元！ 台北吴记老锅底2-4人套餐",""
"10011819","金滏山自助烤肉","","湖北","武汉","wuhan","16","洪山区","美食","10","自助餐","g111","珞狮路451号万象生活广场3楼(近狮城)","石牌岭/街道口","027-87791266","10：00-14:30，17：00-22:00","44","4.0","http://i2.dpfile.com/pc/eaa3e03e698b0b5fbacb6ed93ddd44d2/34705528_m.jpg","","自助餐,韩国料理,石牌岭/街道口,朋友聚餐,家庭聚会,可以刷卡,情侣约会,随便吃吃,免费停车,有生日优惠","7","30.50802","114.34899","114.34899","30.50802","武汉餐厅>>洪山区>>石牌岭/街道口>>自助餐>>金滏山自助烤肉","","","","","8.3","8.2","8.5","178","46","33","25","4","2","鲜榨果汁,培根,水果,石锅拌饭,鱿鱼,鸡翅,生蚝,扇贝,冻虾,五花肉,豆腐,鸡肉,蛋挞,人参鸡汤,茶叶鹌鹑蛋,冰淇淋,剥皮鱼,鸡肫,甜点","","0","￥39.9 - 价值50元！ 金滏山自助烤肉自助午餐;￥44.9 - 价值55元！ 金滏山自助烤肉自助晚餐1位;￥158 - 价值200元！ 金滏山自助烤肉自助午餐","会员专享9折"
"10011827","重庆大拇指麻辣烫","","上海","上海","shanghai","1","浦东新区","美食","10","小吃快餐","g112","长岛路1419号(近菏泽路)","金桥","18721746445","每天 10: 00 -- 23: 30","15","3.5","http://i2.dpfile.com/pc/14aa5c7720906643f0300c520db935e7/38249869_m.jpg","","麻辣烫,金桥","7","31.26368","121.59789","121.59789","31.26368","上海餐厅>>浦东新区>>金桥>>小吃快餐>>麻辣烫>>重庆大拇指麻辣烫","","","外送","","7.3","7.1","7.2","15","5","7","0","0","1","麻辣烫","","0","",""
"10011851","意大利比萨","","北京","北京","beijing","2","朝阳区","美食","10","西餐","g116","南豆各庄黄厂南里2号院富力又一城B区北门","朝阳其它","010-56260326","每天 9: 05 -- 21: 00","33","0.0","http://i1.dpfile.com/pc/b76d554d1f40fb774dcb2359784b23fe/32081682_m.jpg","","意大利菜,酒仙桥","7","39.84709","116.56064","116.56064","39.84709","北京餐厅>>朝阳区>>朝阳其它>>西餐>>比萨>>意大利比萨","","","","","","","","10","0","2","0","0","0","至尊披萨,至尊9寸,鸡米花,洋葱圈,薯球,牛肉披萨和薯条","","0","",""
"10011999","蚝哥海鲜","","北京","北京","beijing","2","西城区","美食","10","海鲜","g251","德胜门内大街滨海胡同甲4号","什刹海","010-84084901","每天 10:00 - 0:00;","77","0.0","http://i1.dpfile.com/pc/04dfb2cf6a0076f95d0b920b0a3d482a/28196991_m.jpg","","海鲜,什刹海,无线上网,朋友聚餐,休闲小憩,有露天位,可以刷卡,情侣约会,有无烟区,免费停车,家庭聚会,有景观位","7","39.94558","116.3808","116.3808","39.94558","北京餐厅>>西城区>>什刹海>>海鲜>>蚝哥海鲜","","","","","","","","10","0","2","0","0","0","刺身海螺片,菠菜拌黄蛤,烤板筋,烤生蚝,海鲜茄子,金针菇,烤翅,烤扇贝,青岛蛤蛎,烤鱿鱼,烤猪蹄,皮皮虾","","0","",""
"10012026","天堂烧烤","","北京","北京","beijing","2","西城区","美食","10","小吃快餐","g112","菊儿胡同33号古韵坊酒店院内(近南锣鼓巷)","地安门","010-66401651","","50","3.0","http://i2.dpfile.com/pc/334ca077c5c25fc4467b928725d9a589/33165361_m.jpg","","烧烤,地安门,什刹海,有露天位,有表演,无线上网,供应夜宵,四合院,朋友聚餐","7","39.93964","116.40519","116.40519","39.93964","北京餐厅>>西城区>>地安门>>小吃快餐>>烧烤>>天堂烧烤","","","","","6.5","7.4","7.0","93","5","8","9","6","5","秘制心管,烤面包片&amp;,烤鱼,板筋,烤面包片&amp,草原风干肉","","0","￥198 - 价值510元！ 天堂烧烤4人套餐",""
"10012215","阳光部落咖啡","","河南","郑州","zhengzhou","160","金水区","美食","10","其他","g118","郑七街与农科路交汇非常soho B座(经三路口)","经三路沿线","0371-86610702","每天 9: 15 -- 22: 00","28","0.0","http://i3.dpfile.com/pc/17d1af521ae2cd119fae2f38553cebd4/31139501_m.jpg","","咖啡厅,经三路沿线,休闲小憩,情侣约会,有景观位,随便吃吃,可以刷卡,无线上网,有下午茶,有露天位,家庭聚会,有无烟区","7","34.79199","113.68737","113.68737","34.79199","郑州餐厅>>金水区>>经三路沿线>>其他>>咖啡厅>>阳光部落咖啡","","","","","","","","5","2","3","0","0","0","摩卡,焦糖玛奇朵,卡布奇诺","","0","",""
"10012258","风波庄(汉中门店)","","江苏","南京","nanjing","5","鼓楼区","美食","10","其他","g118","城西干道虎踞路15号(汉中门地铁站2号出右拐100米即到。)","草场门/龙江","025-86792977","11：:30-14:00 17:30-21:30","34","4.0","http://i3.dpfile.com/pc/9e5c3459c22ab4cfe20bb8c0cee2887f/30709337_m.jpg","","徽菜,草场门/龙江,无线上网,朋友聚餐,是老字号,免费停车,家庭聚会,可自带酒水,随便吃吃,有生日优惠,有露天位,休闲小憩","7","32.04425","118.76358","118.76358","32.04425","南京餐厅>>鼓楼区>>草场门/龙江>>其他>>徽菜>>风波庄(汉中门店)","","","","","8.2","8.3","8.7","134","32","35","19","2","1","大力丸,口水鱼,木桶羊肉,椒盐虾,叫花鸡,化骨锦掌,南瓜,一桶江湖,打狗棒法,一统江湖,小鸡炖茶树菇,蹄膀,雪花六月,风波全鱼,小鸡炖粉皮,？？？,媚来眼去剑法,牛杂锅仔,天女散花,西芹腊肉,美女拳","","1","￥58 - 价值66元！ 风波庄双人套餐;￥163 - 价值186元！ 风波庄6人套餐;￥335 - 价值381元！ 风波庄10-12人套餐;￥122 - 价值139元！ 风波庄4人套餐;￥223 - 价值253元！ 风波庄8人套餐","会员专享9.5折"
"10012299","真快活自助火锅","","湖北","武汉","wuhan","16","汉阳区","美食","10","火锅","g110","龙阳大道6号王家湾摩尔城A座6楼(近沃尔玛)","王家湾","027-84467088,84712088","11:00-22:00","55","0.0","http://i2.dpfile.com/pc/1695ea44a58fd75cd3320534909e7d35/38772580_m.jpg","","火锅,自助餐,王家湾,无线上网","7","30.5587","114.20846","114.20846","30.5587","武汉餐厅>>汉阳区>>王家湾>>火锅>>真快活自助火锅","","","","","","","","24","0","1","0","0","0","基围虾,蛋挞,牛羊肉,螃蟹,鱿鱼,油闷大虾,鲍鱼,贝壳肉,豆苗","","0","",""
"10012323","胖哥麻辣烫","","四川","成都","chengdu","8","武侯区","美食","10","串串香","g3017","盛和三路197号中海部落阁(近翠屏湾)","高新区","028-85323319","","53","3.0","http://i2.dpfile.com/pc/f17a92c80254e2beb8b4014ce55c7c5f/37598059_m.jpg","","串串香,高新区,有露天位,无线上网,是老字号","7","30.60037","104.05016","104.05016","30.60037","成都餐厅>>武侯区>>高新区>>串串香>>胖哥麻辣烫","","","","","5.9","6.5","6.7","18","0","2","1","1","0","脆肚,猪肝,牛肉,蒸饺（鲜肉）,泡椒炒饭,蒸饺,素签,短签,蒸饺（酱肉）,猪鞭","","0","",""
"10012346","金川娃麻辣烫","","天津","天津","tianjin","10","近郊","美食","10","小吃快餐","g112","武清区大光明市场南门东侧","武清区","15222363728","每天 09:00 - 22:30","19","0.0","http://i2.dpfile.com/pc/7fda985e035ba57b96af94d6df9d3abc/28149823_m.jpg","","麻辣烫,王串场/民权门","7","39.38409","117.0444","117.0444","39.38409","天津餐厅>>近郊>>武清区>>小吃快餐>>麻辣烫>>金川娃麻辣烫","","","","","","","","10","7","2","0","1","0","牛筋面,鸭血,冷面,金川娃麻辣烫,鱼豆腐,芋头粉,章鱼丸,金针菇,面筋,鱿鱼,鹌鹑蛋,宽粉,银耳,玉米面,百叶","","0","",""
"10012360","逸荟","La Société","上海","上海","shanghai","1","黄浦区","美食","10","粤菜","g103","圆明园路133号洛克外滩源女青年会大楼8-9楼(近半岛酒店)","外滩","021-63236767","早上11点至晚上10点","495","4.5","http://i1.dpfile.com/pc/9f54ee6c3b399c8979c878d52dccd604/37836720_m.jpg","","粤菜,外滩,可以刷卡,有露天位,无线上网,有下午茶,免费停车,商务宴请,朋友聚餐,情侣约会,有午市套餐,有景观位","7","31.24134","121.4896","121.4896","31.24134","上海餐厅>>黄浦区>>外滩>>粤菜>>逸荟","","","午市套餐,下午茶","","8.2","8.7","8.5","53","18","20","9","1","0","是日老火汤,鲍鱼酥,凤爪,鲍鱼菌菇酥,烧味拼盘,清汤牛腩,海胆饺,杨枝甘露,海鲜泡饭,赖尿虾,帝王蟹,辽参肠粉,鱼腩煲,鸳鸯炸蟹钳,软壳蟹牛油果色拉,豉汁爆炒龙虾球,花雕醉富贵虾,红咖喱斑腩煲,冰花燕窝,琵琶鸭,下午茶套餐,冷菜精选","","0","",""
"10012388","依摩多","","山东","济南","jinan","22","市中区","美食","10","小吃快餐","g112","经四路5号万达广场3楼320室店铺(近拿渡)","大观园","18615230747,13696870172","10：00-22:00","12","4.5","http://i2.dpfile.com/pc/bc7429942e872beb0461713e3c68ad77/40490539_m.jpg","","小吃快餐,大观园,随便吃吃","7","36.66248","117.00223","117.00223","36.66248","济南餐厅>>市中区>>大观园>>小吃快餐>>依摩多","","","","","8.3","8.6","9.0","84","31","23","17","0","1","芝士培根,菠萝,芒果冰淇淋馅","","0","￥20 - 价值28元！ 依摩多法式风味可丽饼7选2;￥18.9 - 价值26元！ 依摩多鲜奶可丽饼两个;￥6.3 - 价值9元！ 依摩多菠萝鲜奶可丽饼一个;￥13.9 - 价值19元！ 依摩多培根可丽饼/火腿可丽饼2选1;￥3.9 - 价值6元！ 依摩多豆浆一杯",""
"10012467","厚味香辣馆(周浦店)","","上海","上海","shanghai","1","浦东新区","美食","10","川菜","g102","沪南公路3439弄50-52号","康桥/周浦","021-64282777","上午11:00-晚间22:00","67","4.0","http://i3.dpfile.com/pc/6733a08cdfd683d7f5491e6325ccc46f/43615544_m.jpg","","川菜,康桥/周浦,可以刷卡,无线上网,是老字号,有午市套餐,朋友聚餐,可送外卖,休闲小憩,有生日优惠,家庭聚会","7","31.11473","121.56787","121.56787","31.11473","上海餐厅>>浦东新区>>康桥/周浦>>川菜>>厚味香辣馆(周浦店)","","","午市套餐","","7.7","7.7","7.8","196","14","45","33","11","16","馋嘴牛蛙,水煮鲶鱼,手撕包菜,拌面,烤鱼,香口猪手,香锅QQ粉,麻将油麦菜,去骨凤爪,鸭头,土豆丝,木瓜色拉,干锅鸡翅,烤鲶鱼,羊蝎子,酸味鱼,香橙土豆泥,宫爆鸡丁,口水蛙,哇哇叫,菜单,鸡蛋布丁,海参豆腐,叽叽哇哇,晾衣白肉","","1","",""
"10012502","融合南洋料理","","上海","上海","shanghai","1","静安区","美食","10","东南亚菜","g115","南京西路1601号芮欧广场B2楼B223铺位(近西康路)","静安寺","13650175257","每天 10:00 - 22:00","28","3.0","http://i3.dpfile.com/pc/4df62a1594f2be81832e61fb13673d70/45199757_m.jpg","","东南亚菜,静安寺","7","31.2232","121.448","121.448","31.2232","上海餐厅>>静安区>>静安寺>>东南亚菜>>融合南洋料理","","","","","6.2","6.8","6.8","19","3","3","6","4","2","星洲炒米粉,槟城福建虾汤面,巴生入骨茶","","0","",""
"10012605","尚品签成都串串料理","","上海","上海","shanghai","1","宝山区","美食","10","川菜","g102","一二八纪念路1000弄宝山万达广场金街3楼349号(近高迎路)","庙行/共康","021-66291769","午市11：30—14：00；晚市16：30—21：00","52","4.5","http://i1.dpfile.com/pc/3440e79a75016f4abb20ff3bc130ead4/36039834_m.jpg","","川菜,庙行/共康,无线上网,朋友聚餐,随便吃吃,可以刷卡,休闲小憩,情侣约会","7","31.32401","121.44664","121.44664","31.32401","上海餐厅>>宝山区>>庙行/共康>>川菜>>尚品签成都串串料理","","","","","8.8","8.5","8.9","470","129","159","61","15","12","各种串串,红糖冰粉,老妈蹄花,担担面,秘制牛肉,鸡胗,黄喉,鸡心,酸辣粉,基围虾,冰粉,腐竹,黄喉串,墨鱼丸,蔬菜,老妈蹄花汤,鱼豆腐,午餐肉,成都串串香,虾丸,掌中宝,麻辣脑花,弹牙手擀担担面,手擀面（1个小时,花菜","","0","",""
"10012712","香港星记茶餐厅","","云南","大理州","dalizhou","277","大理市","美食","10","粤菜","g103","古城博爱路79号王府酒店2楼(靠近洋人街 人民路 大理王府2楼)","","0872-3156099","7:30--23:00","50","3.0","http://i2.dpfile.com/pc/16197e94ba1f57a4580c5154c28ba02b/42467455_m.jpg","","粤菜","7","25.69276","100.15932","100.15932","25.69276","大理州餐厅>>大理市>>粤菜>>香港星记茶餐厅","","","","","6.4","6.5","7.1","12","0","2","0","0","0","虾粥,深井烧鹅","","0","",""
